county,name,phone,address,lat,lng
宜蘭縣,存仁社區活動中心,03-9902065,宜蘭縣蘇澳鎮存仁里存仁路179之1號,24.626093,121.841629
宜蘭縣,永樂社區活動中心,03-9971536,宜蘭縣蘇澳鎮永樂里永樂路116巷6號,24.576194,121.841404
宜蘭縣,白米社區活動中心,03-9952653,宜蘭縣蘇澳鎮永春里永春路134巷11之1號,24.582633,121.84541
宜蘭縣,長安社區活動中心,03-9964218,宜蘭縣蘇澳鎮長安里勝利路1-1號,24.592791,121.854052
宜蘭縣,頂寮文教活動中心,03-9905508,宜蘭縣蘇澳鎮頂寮里頂寮路2號,24.641238,121.834671
宜蘭縣,蘇北社區活動中心,03-9972595,宜蘭縣蘇澳鎮蘇北里新生路8號,24.596778,121.850502
宜蘭縣,岳明社區活動中心,02-29287551,宜蘭縣蘇澳鎮港邊里岳明新村91號,24.61032,121.858419
宜蘭縣,昭安社區活動中心,03-9966702,宜蘭縣蘇澳鎮南建里內埤路117之2號,24.577658,121.867929
宜蘭縣,南強社區活動中心,03-9981101,宜蘭縣蘇澳鎮南強里南澳路2-6號,24.463429,121.80651
宜蘭縣,東澳社區活動中心,03-9986188,宜蘭縣蘇澳鎮東澳里東澳路103號,24.516044,121.834642
宜蘭縣,南寧社區活動中心,03-9963609,宜蘭縣蘇澳鎮南寧里南新路9號,24.581204,121.8695
宜蘭縣,蘇南社區活動中心,03-9962701,宜蘭縣蘇澳鎮蘇南里光復路27巷4號,24.597145,121.852618
宜蘭縣,聖湖社區活動中心,03-9951755,宜蘭縣蘇澳鎮聖湖里全祿街10號,24.594726,121.834457
宜蘭縣,永樂國小,03-9962840,宜蘭縣蘇澳鎮永樂里永樂路1號,24.575499,121.844064
宜蘭縣,福德社區活動中心,03-9902911,宜蘭縣蘇澳鎮永榮里思村路9號旁,24.622964,121.840146
宜蘭縣,永光社區活動中心,03-9965042,宜蘭縣蘇澳鎮永光里蘇港路85號,24.594028,121.852119
宜蘭縣,蘇澳國中,03-9962137,宜蘭縣蘇澳鎮聖湖里中山路二段1號,24.595272,121.835429
宜蘭縣,士敏國小,03-9962342,宜蘭縣蘇澳鎮長安里光明路8號,24.592295,121.853691
宜蘭縣,文化國中,03-9903060,宜蘭縣蘇澳鎮永榮里新馬路2號,24.617878,121.832787
宜蘭縣,岳明國中小,03-9903044,宜蘭縣蘇澳鎮港邊里嶺脚路140號,24.613907,121.85362
宜蘭縣,育英國小,03-9901294,宜蘭縣蘇澳鎮龍德里福德路134號,24.640184,121.832987
宜蘭縣,蓬萊國小,03-9981062,宜蘭縣蘇澳鎮南強里南澳路85號,24.464699,121.803028
宜蘭縣,蘇澳國小,03-9962312,宜蘭縣蘇澳鎮蘇西里中山路一段366號,24.596747,121.841327
宜蘭縣,馬賽國小,03-9902694,宜蘭縣蘇澳鎮永榮里大同路108號,24.621898,121.834916
宜蘭縣,龍德社區活動中心,03-9909123,宜蘭縣蘇澳鎮龍德里福德路177巷27號,24.640753,121.829575
宜蘭縣,南安國小,03-9962043,宜蘭縣蘇澳鎮南建里學府路122號,24.578911,121.868385
宜蘭縣,蘇澳海事,03-9951661,宜蘭縣蘇澳鎮蘇西里蘇港路213號,24.594141,121.845603
宜蘭縣,永榮社區活動中心,03-9905669,宜蘭縣蘇澳鎮永榮里和平路51號,24.621222,121.836164
宜蘭縣,朝陽社區活動中心,03-9981981,宜蘭縣蘇澳鎮朝陽里朝陽路40號,24.461472,121.815814
宜蘭縣,南成社區活動中心,03-9955975,宜蘭縣蘇澳鎮南成里民生路15號,24.580656,121.864341
宜蘭縣,南安國中,03-9962749,宜蘭縣蘇澳鎮南建里學府路117號,24.576013,121.86893
宜蘭縣,隘丁社區活動中心,03-9903951,宜蘭縣蘇澳鎮隘丁里城中路40號,24.61577,121.837047
宜蘭縣,蘇東里活動中心,0937163916,宜蘭縣蘇澳鎮蘇東里蘇花路5段101巷1號,24.59564,121.854412
宜蘭縣,蘇澳鎮公所,03-9973421#274,宜蘭縣蘇澳鎮蘇西里蘇港路215號,24.594412,121.842151
宜蘭縣,更新里-更新漁民活動中心,03-9772371#286,宜蘭縣頭城鎮更新里頭城鎮濱海路三段93號,24.902183,121.863369
宜蘭縣,城東里-城東社區活動中心,03-9771362,宜蘭縣頭城鎮城東里頭城鎮城東里開蘭舊路6號,24.859148,121.824974
宜蘭縣,中崙里-中崙社區活動中心,03-9889234,宜蘭縣頭城鎮中崙里頭城鎮中崙里路31號,24.834782,121.802711
宜蘭縣,大溪里-大溪國小,03-9781044,宜蘭縣頭城鎮大溪里頭城鎮大溪里濱海路五段250號,24.940622,121.893244
宜蘭縣,石城里-石城社區活動中心,03-9772371#286,宜蘭縣頭城鎮石城里頭城鎮石城里（路）40-8號,24.979949,121.949828
宜蘭縣,大里里-大里社區活動中心,03-9781377,宜蘭縣頭城鎮大里里頭城鎮大里里濱海路六段251號,24.963908,121.920002
宜蘭縣,港口里-港口社區活動中心,03-9777768,宜蘭縣頭城鎮港口里頭城鎮港口里（路）60-3號,24.876238,121.840317
宜蘭縣,福成里-福成社區活動中心,03-9779098,宜蘭縣頭城鎮福成里頭城鎮福成里宜三路二段378號,24.861802,121.805065
宜蘭縣,金面里-協天廟,03-9771206,宜蘭縣頭城鎮金面里頭城鎮金面里路354號,24.852983,121.801706
宜蘭縣,下埔里-下埔社區活動中心,03-9770771,宜蘭縣頭城鎮下埔里頭城鎮下埔里路48-3號,24.836993,121.807785
宜蘭縣,二城里-二城社區活動中心,03-9772371#286,宜蘭縣頭城鎮二城里頭城鎮二城里青雲路一段143號,24.838822,121.79276
宜蘭縣,開成寺(城隍廟)1樓,03-9772423,宜蘭縣頭城鎮新建里頭城鎮新建里吉祥路1號,24.855674,121.82187
宜蘭縣,城北里-農會,03-9773100#58,宜蘭縣頭城鎮城北里西五巷3-1號,24.859808,121.824247
宜蘭縣,大坑里-協天宮,03-9772050,宜蘭縣頭城鎮大坑里頭城鎮大坑里協天路599號,24.857185,121.83147
宜蘭縣,竹安里-竹安國小五育樓,03-9771178,宜蘭縣頭城鎮竹安里頭城鎮竹安里頭濱路一段601號,24.825164,121.820629
宜蘭縣,頭城鎮公所,03-9772371#219,宜蘭縣頭城鎮新建里開蘭路1號,24.854769,121.821468
宜蘭縣,外澳里-外澳社區活動中心,03-9779800,宜蘭縣頭城鎮外澳里頭城鎮外澳里濱海路二段212號,24.88332,121.845787
宜蘭縣,新建里-新建社區活動中心,03-9773214,宜蘭縣頭城鎮新建里頭城鎮新建里新興路234-1號,24.853946,121.819633
宜蘭縣,頂埔里-順天府池府王爺廟,03-9776535,宜蘭縣頭城鎮頂埔里頭城鎮頂埔里路一段250號,24.846142,121.814865
宜蘭縣,拔雅里-拔雅社區活動中心,03-9778503,宜蘭縣頭城鎮拔雅里頭城鎮拔雅里復興路12巷2號,24.861151,121.816564
宜蘭縣,武營里-頭城國小,03-9771011#101,宜蘭縣頭城鎮武營里頭城鎮武營里開蘭路282號,24.862689,121.827116
宜蘭縣,東城社區活動中心,03-9592036,宜蘭縣冬山鄉東城村東城路280號,24.629716,121.806334
宜蘭縣,安平社區活動中心,0963005319,宜蘭縣冬山鄉安平村安平路23號,24.631003,121.785411
宜蘭縣,太和社區活動中心,03-9591489,宜蘭縣冬山鄉太和村太和路238號,24.632365,121.773223
宜蘭縣,南興社區活動中心,03-9594028,宜蘭縣冬山鄉南興村冬山路98之2號,24.63359,121.79422
宜蘭縣,大進社區活動中心,03-9614657,宜蘭縣冬山鄉大進村大進九路50號,24.633296,121.71218
宜蘭縣,永美社區活動中心,03-9585680,宜蘭縣冬山鄉永美村永興路1段189號,24.655404,121.771303
宜蘭縣,丸山社區活動中心,03-9584793,宜蘭縣冬山鄉丸山村港尾路98號,24.642621,121.766279
宜蘭縣,順安社區活動中心,0937454532,宜蘭縣冬山鄉順安村義成路2段378巷87號,24.653692,121.764801
宜蘭縣,清溝社區活動中心,03-9584045,宜蘭縣冬山鄉清溝村光明路51號,24.666488,121.76608
宜蘭縣,群英社區活動中心,03-9582580,宜蘭縣冬山鄉群英村冬山路5段51號,24.667694,121.774876
宜蘭縣,鹿埔社區活動中心,03-9591105,宜蘭縣冬山鄉鹿埔村鹿埔路488號,24.655466,121.750814
宜蘭縣,補城社區活動中心,03-9591105,宜蘭縣冬山鄉補城村建進2路29號,24.642371,121.805915
宜蘭縣,大興社區活動中心,0925102560,宜蘭縣冬山鄉大興村福興東路88號,24.630061,121.810531
宜蘭縣,柯林社區活動中心,03-9591105,宜蘭縣冬山鄉柯林村光華路209號,24.676559,121.729876
宜蘭縣,廣興社區活動中心,03-951556,宜蘭縣冬山鄉廣興村永興路2段916號,24.669183,121.749287
宜蘭縣,廣安社區活動中心,03-9515031,宜蘭縣冬山鄉廣安村廣安路195號,24.671037,121.745892
宜蘭縣,香和社區活動中心,03-9591630,宜蘭縣冬山鄉香和村香南路33號,24.6288,121.797625
宜蘭縣,冬山社區活動中心,03-9593313,宜蘭縣冬山鄉冬山村中正路20號,24.636009,121.79139
宜蘭縣,珍珠社區活動中心,03-9581118,宜蘭縣冬山鄉珍珠村幸福二路73號,24.651956,121.784558
宜蘭縣,冬山鄉公所,03-9591105,宜蘭縣冬山鄉南興村冬山路100號,24.634419,121.792679
宜蘭縣,三奇社區活動中心,03-9592586,宜蘭縣冬山鄉三奇村成興路810號,24.643367,121.813654
宜蘭縣,武淵社區活動中心,03-9505267,宜蘭縣冬山鄉武淵村富農路2段325號,24.660689,121.7977
宜蘭縣,冬山國小,03-9593504*1011,宜蘭縣冬山鄉安平村安中路35號,24.631564,121.789632
宜蘭縣,五結鄉公所,03-9501115,宜蘭縣五結鄉五結村五結路二段343號,24.684704,121.798371
宜蘭縣,開基灶君廟省民堂,03-9501115,宜蘭縣五結鄉三興村三結東路14號,24.699371,121.786712
宜蘭縣,八大庄一百甲城煌廟,0928406676,宜蘭縣五結鄉錦眾村五結路一段120號,24.692916,121.827977
宜蘭縣,五結國中五動館,03-9501105#13,宜蘭縣五結鄉大吉村大吉五路58號,24.696307,121.800236
宜蘭縣,二結社區活動中心,03-9659413,宜蘭縣五結鄉二結村中正路三段151號,24.706111,121.770188
宜蘭縣,四結福德廟,03-650428,宜蘭縣五結鄉上四村福德路68號,24.697385,121.765249
宜蘭縣,新店社區活動中心,0910058239,宜蘭縣五結鄉季新村新店路99號,24.677758,121.825942
宜蘭縣,孝威社區活動中心,03-9509102,宜蘭縣五結鄉孝威村孝威路322號,24.696147,121.811727
宜蘭縣,三興社區活動中心,03-9500714,宜蘭縣五結鄉三興村三結五路188號,24.703749,121.782905
宜蘭縣,五結社區活動中心,0933772661,宜蘭縣五結鄉五結村五結中路12號3樓,24.684327,121.798315
宜蘭縣,利澤社區活動中心,0932265157,宜蘭縣五結鄉利澤村下福路156號,24.665023,121.823752
宜蘭縣,季新社區活動中心,0932090388,宜蘭縣五結鄉季新村季新村季水路北巷6-1號,24.676629,121.83177
宜蘭縣,協和社區活動中心,03-9506695,宜蘭縣五結鄉協和村五結路2段199號,24.688298,121.804461
宜蘭縣,四結社區活動中心,0963077019,宜蘭縣五結鄉四結村光榮北路198號,24.687304,121.77388
宜蘭縣,成興社區老人活動中心,0932090736,宜蘭縣五結鄉成興村頂寮路20巷2號,24.6446445,121.8327477
宜蘭縣,成興村老人福利中心,0927181318,宜蘭縣五結鄉成興村利成路一段185號,24.652546,121.82545
宜蘭縣,正勉堂,0937280827,宜蘭縣五結鄉福興村興盛北路182巷16號,24.686464,121.779805
宜蘭縣,大義社區活動中心臨時收容站,03-9890610,宜蘭縣三星鄉大義村上將路3段375巷31號,24.684366,121.70406
宜蘭縣,三星國小臨時收容站,03-9892026#10,宜蘭縣三星鄉義德村三星路5段86號,24.666267,121.650719
宜蘭縣,大洲多功能館臨時收容站,03-9892018,宜蘭縣三星鄉大洲村五分路2段180號,24.692294,121.730625
宜蘭縣,憲明國小臨時收容站,03-9892049#11,宜蘭縣三星鄉天山村福山街119號,24.660819,121.618664
宜蘭縣,大隱社區活動中心臨時收容站,03-9892018,宜蘭縣三星鄉大隱村三星路1段533巷48號,24.668759,121.714701
宜蘭縣,萬富社區活動中心臨時收容站,03-9892864,宜蘭縣三星鄉萬富村7鄰萬富五路300號,24.679075,121.675914
宜蘭縣,行健社區活動中心臨時收容站,03-9892018,宜蘭縣三星鄉行健村行健三路2段13號,24.672647,121.688253
宜蘭縣,萬德社區活動中心臨時收容站,03-9892018,宜蘭縣三星鄉萬德村楓林九路61號,24.675846,121.656475
宜蘭縣,三星國中臨時收容站,03-9899553,宜蘭縣三星鄉月眉村星義路72號,24.6678,121.65373
宜蘭縣,員山社區活動中心臨時收容站,03-9894502,宜蘭縣三星鄉員山村泰雅一路203巷清水66號,24.644065,121.596712
宜蘭縣,三星鄉公所,03-9892018#205,宜蘭縣三星鄉集慶村集義路168號,24.665357,121.654145
宜蘭縣,大隱尊親館,03-9894985,宜蘭縣三星鄉大隱村25鄰三星路二段99巷17弄68號,24.668417,121.707382
宜蘭縣,尚德社區活動中心,03-9228171,宜蘭縣員山鄉尚德村三鬮路35巷13號,24.737618,121.722128
宜蘭縣,惠好社區活動中心,03-9222406,宜蘭縣員山鄉惠好村賢德路二段66巷50號,24.731738,121.730742
宜蘭縣,七賢村民眾活動中心,03-9228171,宜蘭縣員山鄉七賢村賢德路一段61巷25號,24.714634,121.735106
宜蘭縣,深溝村集會所,03-9221346,宜蘭縣員山鄉深溝村深洲一路37巷7號,24.715727,121.71978
宜蘭縣,蓁巷社區活動中心,03-9225776,宜蘭縣員山鄉蓁巷村成功路45號,24.713571,121.695581
宜蘭縣,中華村集會所,03-9231377,宜蘭縣員山鄉中華村粗坑路304號,24.709402,121.646618
宜蘭縣,湖東社區活動中心,03-9228171,宜蘭縣員山鄉湖東村茄苳路68-2號,24.746471,121.70628
宜蘭縣,內城社區活動中心,03-9228171,宜蘭縣員山鄉內城村榮光路321號,24.720742,121.688925
宜蘭縣,逸仙社區活動中心,03-9221759,宜蘭縣員山鄉逸仙村大湖十六路181巷2號,24.738714,121.700435
宜蘭縣,內城國民中小學化育分校,03-9231103,宜蘭縣員山鄉中華村員山路三段256號,24.711572,121.652466
宜蘭縣,永和社區活動中心,03-9224617,宜蘭縣員山鄉永和村溫泉路62-1號,24.748944,121.712503
宜蘭縣,同樂社區活動中心,03-9232254,宜蘭縣員山鄉同樂村同新路182號,24.762076,121.729719
宜蘭縣,枕山社區活動中心,03-9231666,宜蘭縣員山鄉枕山村慶安路97號,24.768242,121.718597
宜蘭縣,湖北社區活動中心,03-9231482,宜蘭縣員山鄉湖北村大湖五路80號,24.745093,121.697802
宜蘭縣,結頭份社區活動中心,03-9228749,宜蘭縣員山鄉頭分村永同路2段186之1號,24.760946,121.720384
宜蘭縣,老人文康中心,03-9227971,宜蘭縣員山鄉員山村員山鄉文化路156號,24.745244,121.722886
宜蘭縣,雙湖社區活動中心,03-9228171,宜蘭縣員山鄉湖西村隘界路131號,24.748286,121.68547
宜蘭縣,員山鄉公所,03-9231991#651,宜蘭縣員山鄉員山村員山路1段322號,24.743317,121.723343
宜蘭縣,樂水社區活動中心,03-9801419,宜蘭縣大同鄉樂水村大同鄉樂水村碼崙巷46號,24.611768,121.551249
宜蘭縣,崙埤社區活動中心,03-9801174,宜蘭縣大同鄉崙埤村大同鄉崙埤村朝陽10-8號,24.678073,121.609748
宜蘭縣,復興社區活動中心,03-9892690,宜蘭縣大同鄉復興村大同鄉復興村泰雅一路61巷5號,24.631781,121.606435
宜蘭縣,大同國中,03-9809653,宜蘭縣大同鄉太平村大同鄉泰雅路4段35號,24.574262,121.477926
宜蘭縣,茂安社區活動中心,03-9809653,宜蘭縣大同鄉茂安村茂安村1鄰志航15-1號,24.554141,121.472448
宜蘭縣,四季社區活動中心,03-9809422,宜蘭縣大同鄉四季村大同鄉四季村5鄰和勳巷2號,24.487687,121.426312
宜蘭縣,南山社區活動中心,03-9809140,宜蘭縣大同鄉南山村大同鄉南山村4鄰埤南巷9-1號,24.436672,121.3792
宜蘭縣,松羅社區活動中心,03-9801173,宜蘭縣大同鄉松羅村大同鄉松羅村南巷81-10號,24.656119,121.578991
宜蘭縣,寒溪社區活動中心,03-9517475,宜蘭縣大同鄉寒溪村大同鄉寒溪村8鄰寒溪巷5號,24.609057,121.68611
宜蘭縣,英士活動中心,03-9801316,宜蘭縣大同鄉英士村大同鄉英士村梵梵90之2號,24.612836,121.525188
宜蘭縣,育才國小中興堂,03-9253794轉120,宜蘭縣宜蘭市進士里進士路1段32號,24.736176,121.740875
宜蘭縣,力行國小英才館,03-9322309轉282,宜蘭縣宜蘭市孝廉里力行路１５２號,24.763964,121.754786
宜蘭縣,凱旋國小展藝館,03-9253793-104,宜蘭縣宜蘭市南津里凱旋路130號,24.72447,121.763212
宜蘭縣,凱旋國民中學樂活館,03-92556003,宜蘭縣宜蘭市建業里縣政七街50巷1號,24.725982,121.7572
宜蘭縣,宜蘭國小活動中心,03-9322210轉511,宜蘭縣宜蘭市神農里崇聖街2號,24.753254,121.754332
宜蘭縣,復興國中群育館,03-93229422#5033,宜蘭縣宜蘭市文化里復興路二段77號,24.749036,121.746853
宜蘭縣,社福大樓2樓,03-9325164分機502,宜蘭縣宜蘭市神農里民權路一段65號,24.752555,121.753945
宜蘭縣,黎明國小體育館,03-9383792分機104,宜蘭縣宜蘭市東村里校舍路1號,24.751455,121.762685
宜蘭縣,五大社區活動中心,03-9325164,宜蘭縣宜蘭市延平里東港路1段186巷50弄21號,24.75037,121.783783
宜蘭縣,國立宜蘭高商四維堂,03-93841470#500,宜蘭縣宜蘭市慈安里延平路50號,24.7549,121.7655
宜蘭縣,黎明里社區活動中心,03-9383053,宜蘭縣宜蘭市黎明里黎明二路239號之1,24.744821,121.774204
宜蘭縣,梅洲社區活動中心,03-9283552,宜蘭縣宜蘭市梅洲里金同春路48號1樓,24.7631,121.744273
宜蘭縣,慶和社區活動中心1樓,03-9325164,宜蘭縣宜蘭市北門里碧霞街136號,24.76248,121.752097
宜蘭縣,東園社區活動中心,03-9320883,宜蘭縣宜蘭市菜園里宜蘭市新興路111號,24.759357,121.756155
宜蘭縣,七張社區活動中心,03-9305306,宜蘭縣宜蘭市七張里七張路537號,24.764192,121.769568
宜蘭縣,凱旋社區活動中心,03-9254187,宜蘭縣宜蘭市凱旋里鎮安路23號,24.727552,121.768181
宜蘭縣,南橋社區活動中心,03-9252790,宜蘭縣宜蘭市南橋里南橋路240號,24.73073,121.741218
宜蘭縣,新生社區活動中心,0911230201,宜蘭縣宜蘭市新生里大福路1段243號,24.764576,121.76421
宜蘭縣,中華國中,03-9382704分機502,宜蘭縣宜蘭市東村里女中路一段100號,24.74888,121.767255
宜蘭縣,宜蘭國中活動中心,03-9322519#100,宜蘭縣宜蘭市小東里樹人路37號,24.761984,121.758382
宜蘭縣,光復國小五育館,03-9322077轉1833,宜蘭縣宜蘭市負郭里泰山路60號,24.754771,121.747761
宜蘭縣,國立宜蘭高中體育館,03-9324153轉300,宜蘭縣宜蘭市建軍里復興路三段8號,24.751114,121.742785
宜蘭縣,新生國小體育館,03-9283791轉410,宜蘭縣宜蘭市茭白里大坡路一段100號,24.770685,121.754518
宜蘭縣,國立宜蘭大學體育館,03-9317276#7269,宜蘭縣宜蘭市思源里神農路一段1號,24.746281,121.747629
宜蘭縣,茭白社區活動中心,03-9283827,宜蘭縣宜蘭市茭白里一結路98號,24.776315,121.750603
宜蘭縣,南屏國小活動中心,03-9323795轉1601,宜蘭縣宜蘭市負郭里泰山路98號,24.753962,121.742637
宜蘭縣,中山國小小巨蛋,03-9322064-122,宜蘭縣宜蘭市神農里崇聖街4號,24.753979,121.754624
宜蘭縣,建業社區活動中心,03-9369029,宜蘭縣宜蘭市建業里建業路57號86巷,24.727214,121.750632
宜蘭縣,北津社區活動中心,03-9283835,宜蘭縣宜蘭市北津里金同春路231號,24.767544,121.749872
宜蘭縣,宜蘭縣立體育館,03-9254034#20,宜蘭縣宜蘭市建業里宜蘭市中山路一段755號,24.737473,121.751879
宜蘭縣,礁溪鄉公所二樓,03-9881311-112,宜蘭縣礁溪鄉六結村中山路二段3號,24.823568,121.771214
宜蘭縣,玉田國小,03-9882461#101,宜蘭縣礁溪鄉玉田村玉民路一段169號,24.796462,121.790612
宜蘭縣,德陽宮弘道大樓,03-9882248,宜蘭縣礁溪鄉德陽村中山路二段133號,24.826577,121.773243
宜蘭縣,玉石活動中心,03-9882324,宜蘭縣礁溪鄉玉石村礁溪鄉公園路2號,24.829882,121.773591
宜蘭縣,玉田活動中心,03-9881138,宜蘭縣礁溪鄉玉田村礁溪鄉玉田村玉龍路一段479巷6號,24.797912,121.785623
宜蘭縣,佛光大學,03-9871000#11321,宜蘭縣礁溪鄉林美村林尾路160號,24.817726,121.731634
宜蘭縣,淡江大學蘭陽校園,03-9873088#7006,宜蘭縣礁溪鄉林美村礁溪鄉林美村林尾路180號,24.822217,121.728996
宜蘭縣,礁溪國中,03-9882412#105,宜蘭縣礁溪鄉大忠村礁溪路四段23號,24.81717,121.767736
宜蘭縣,礁溪國小,03-9882047-150,宜蘭縣礁溪鄉大忠村礁溪路四段135號,24.821688,121.768531
宜蘭縣,三民國小,03-9882271#82,宜蘭縣礁溪鄉三民村礁溪鄉十六結路100號,24.813026,121.759896
宜蘭縣,吳沙國中,03-9284701#52,宜蘭縣礁溪鄉吳沙村育英路79號,24.78609,121.759029
宜蘭縣,鄉立幼兒園,03-9304777,宜蘭縣礁溪鄉光武村武暖路10之3號,24.782851,121.767225
宜蘭縣,龍潭國小,03-9284764#215,宜蘭縣礁溪鄉龍潭村育龍路71號,24.780204,121.744664
宜蘭縣,四結國小,03-9284751#102,宜蘭縣礁溪鄉吳沙村育英路46號,24.786176,121.759702
宜蘭縣,三民活動中心,0922885704,宜蘭縣礁溪鄉三民村十六結路101之1號,24.809944,121.764632
宜蘭縣,龍潭國小匏崙分校,03-9285199,宜蘭縣礁溪鄉匏崙村匏杓崙路95之2號,24.792221,121.729585
宜蘭縣,協天廟忠義大樓,03-9882621,宜蘭縣礁溪鄉大忠村大忠路14號,24.818608,121.768244
宜蘭縣,南澳高中彩虹館,03-9981024,宜蘭縣南澳鄉南澳村蘇花路二段301號,24.465969,121.800805
宜蘭縣,金岳國小原住民族資源教室,03-9981636,宜蘭縣南澳鄉金岳村南澳鄉金岳村金岳路2號,24.47092,121.77735
宜蘭縣,武塔國小風雨教室,03-9981632,宜蘭縣南澳鄉武塔村新溪路1號,24.445588,121.778538
宜蘭縣,金洋國小風雨教室,03-9981486,宜蘭縣南澳鄉金洋村南澳鄉金洋村金洋路11號,24.425934,121.74933
宜蘭縣,澳花國小學生餐廳,03-9985108,宜蘭縣南澳鄉澳花村中央路19號,24.329312,121.739569
宜蘭縣,東岳村集貨中心場,03-9986103,宜蘭縣南澳鄉東岳村南澳鄉東岳村蘇花路3段141號,24.519143,121.831751
宜蘭縣,澳花和平基督長老教會,03-9985410,宜蘭縣南澳鄉澳花村南澳鄉澳花村和平路48號,24.333207,121.745835
宜蘭縣,東澳國小風雨教室,03-9986217,宜蘭縣南澳鄉東岳村南澳鄉東岳村蘇花路3段209號,24.521552,121.832973
宜蘭縣,碧候國小原住民族資源教室,03-9981634,宜蘭縣南澳鄉碧候村南澳鄉碧候村碧候路自覺巷38號,24.474119,121.784688
宜蘭縣,南澳國小風雨教室,03-9981228,宜蘭縣南澳鄉南澳村南澳鄉南澳村中正路15號,24.467302,121.800586
宜蘭縣,南澳鄉公所二樓第二會議室,03-9981915,宜蘭縣南澳鄉南澳村蘇花路二段381號,24.466072,121.803745
宜蘭縣,第一公園管理站信義社區活動中心,03-9542773,宜蘭縣羅東鎮信義里中華路189號,24.683541,121.768578
宜蘭縣,羅東國小,03-9542342#117,宜蘭縣羅東鎮開明里民族路1號,24.673508,121.771235
宜蘭縣,竹林國小,03-9542084#320,宜蘭縣羅東鎮竹林里復興路二段128號,24.688759,121.766272
宜蘭縣,公正國小,03-9566659#8300,宜蘭縣羅東鎮公正里公正路199號,24.684362,121.758308
宜蘭縣,北成國小,03-9512626#401,宜蘭縣羅東鎮北成里北成路一段125號,24.674813,121.758809
宜蘭縣,國華國中,03-513062#503,宜蘭縣羅東鎮國華里國華街101號,24.677191,121.760842
宜蘭縣,羅東鎮展演廳,03-9545102轉258,宜蘭縣羅東鎮賢文里中興路1號,24.676451,121.766917
宜蘭縣,仁愛社區活動中心,03-9654034,宜蘭縣羅東鎮仁愛里復興路三段577號,24.701422,121.756007
宜蘭縣,仁德社區活動中心,03-9546412,宜蘭縣羅東鎮仁德里忠義巷80之2號,24.673887,121.766352
宜蘭縣,東安社區活動中心,03-9564947,宜蘭縣羅東鎮東安里天祥路171號,24.674295,121.776353
宜蘭縣,維安社區活動中心,03-9518105,宜蘭縣羅東鎮西安里西安街468號,24.667476,121.754373
宜蘭縣,新群社區活動中心,03-9506763,宜蘭縣羅東鎮新群里月眉路300號,24.667266,121.792181
宜蘭縣,南豪社區活動中心,0935500945,宜蘭縣羅東鎮南豪里體育路40號1樓,24.669834,121.766196
宜蘭縣,聖安宮,03-9544021,宜蘭縣羅東鎮漢民里忠孝路48號,24.676008,121.764885
宜蘭縣,羅東國中,03-9542075#501,宜蘭縣羅東鎮信義里中華路99號,24.682397,121.768092
宜蘭縣,第二公園管理站羅東鎮老人館,03-9545102#253,宜蘭縣羅東鎮集祥里公園路113號,24.676279,121.769104
宜蘭縣,竹林社區活動中心,03-9540821,宜蘭縣羅東鎮竹林里復興路二段122號,24.688279,121.765783
宜蘭縣,第五公園管理站樹林社區活動中心,9540605,宜蘭縣羅東鎮樹林里文林路130號,24.68333,121.761391
宜蘭縣,漢民社區活動中心,03-9563167,宜蘭縣羅東鎮漢民里純精路一段219號,24.673732,121.763454
宜蘭縣,成功國小,03-9542156#43,宜蘭縣羅東鎮成功里興東南路100號,24.670766,121.768733
宜蘭縣,羅莊社區活動中心,03-9547282,宜蘭縣羅東鎮羅莊里羅莊街357號,24.671607,121.779692
宜蘭縣,順和活動中心,03-9308116,宜蘭縣壯圍鄉忠孝村壯圍鄉忠孝村順和路47-4號,24.751854,121.801706
宜蘭縣,過嶺活動中心,03-9301160,宜蘭縣壯圍鄉過嶺村壯圍鄉過村壯濱路3段295號,24.759456,121.815386
宜蘭縣,壯五活動中心,0977334118,宜蘭縣壯圍鄉吉祥村壯圍鄉吉祥村壯五路63號,24.748476,121.786457
宜蘭縣,美福活動中心,0939911927,宜蘭縣壯圍鄉美福村美福路三段92巷2號,24.725268,121.780418
宜蘭縣,新南活動中心,0909293888,宜蘭縣壯圍鄉新南村壯圍鄉新南村美福路一段76號,24.723382,121.798438
宜蘭縣,古結活動中心,0952600276,宜蘭縣壯圍鄉古結村壯圍鄉古結村古結路237號,24.729769,121.803042
宜蘭縣,美城活動中心,0912592816,宜蘭縣壯圍鄉美城村壯圍鄉美城村永美路2段121號,24.77736,121.788925
宜蘭縣,壯六活動中心,03-9304321,宜蘭縣壯圍鄉忠孝村壯圍鄉忠孝村壯六路47號,24.751318,121.801668
宜蘭縣,廍後活動中心,09-05439289,宜蘭縣壯圍鄉東港村壯圍鄉東港村廍後路50-1號,24.727056,121.822712
宜蘭縣,大福補天宮,03-9301171,宜蘭縣壯圍鄉大福村壯圍鄉大福村壯濱路6段279號,24.802848,121.816237
宜蘭縣,壯圍鄉公所,03-9383017,宜蘭縣壯圍鄉吉祥村壯圍鄉壯志路1號,24.746943,121.785774
宜蘭縣,永鎮活動中心,03-9301269,宜蘭縣壯圍鄉永鎮村壯圍鄉永鎮村壯濱路四段375號,24.775099,121.814761
宜蘭縣,紅葉活動中心,0958921949,宜蘭縣壯圍鄉復興村壯圍鄉復興村紅葉路69-4號,24.736644,121.815425
宜蘭縣,壯圍鄉立幼兒園,03-9304246,宜蘭縣壯圍鄉古亭村壯圍鄉古亭村永美路1段180號,24.770599,121.800027
宜蘭縣,古亭活動中心,0911303587,宜蘭縣壯圍鄉古亭村壯圍鄉古亭村古亭路48-16號,24.771927,121.800347
宜蘭縣,新社活動中心,03-9302711,宜蘭縣壯圍鄉新社村壯圍鄉新社村新社路54之3號,24.784606,121.80937
桃園市,寶興市民活動中心,03-3267179,桃園市桃園區寶山里民有三街501號,25.012712,121.313802
桃園市,陽明綜合市民活動中心,03-3772986,桃園市桃園區福林里陽明三街33號,24.979541,121.307115
桃園市,陽明公園市民活動中心,03-3710601,桃園市桃園區福林里介壽路199號,24.982105,121.308059
桃園市,青溪市民活動中心,03-3357800,桃園市桃園區青溪里鎮撫街41號,24.998192,121.314448
桃園市,汴洲里長青活動中心,03-3469051,桃園市桃園區汴洲里桃園巿莊敬路1段71號,25.02625,121.303811
桃園市,新埔市民活動中心,03-3348058,桃園市桃園區新埔里南通路65號,25.020084,121.305577
桃園市,南門國小,03-3370576#511,桃園市桃園區南門里復興路303號,24.988567,121.304364
桃園市,北門國小,03-3250959#520,桃園市桃園區信光里正康三街139號,25.00718,121.306972
桃園市,成功國小,03-3322772#511,桃園市桃園區永興里三民路3段22號,24.998448,121.307168
桃園市,會稽國小,03-3252982#510,桃園市桃園區春日里春日路1080號,25.02025,121.309089
桃園市,建德國小,03-3660688#520,桃園市桃園區大林里延平路265號,24.977023,121.315177
桃園市,中山國小,03-2203012#510,桃園市桃園區中山里國際路一段1070號,24.986357,121.289882
桃園市,大有國小,03-3577715#510,桃園市桃園區大有里大有路220號,25.008907,121.320522
桃園市,大業國小,03-3337771#511,桃園市桃園區福安里大業路一段135號,25.006681,121.31594
桃園市,快樂國小,03-3580001#510,桃園市桃園區會稽里大有路789號,25.018713,121.315445
桃園市,朝陽北門市民活動中心,03-3378009,桃園市桃園區朝陽里朝陽街63號,24.997837,121.312918
桃園市,永康市民活動中心,03-3375713,桃園市桃園區永安里中正五街315號,25.001042,121.303347
桃園市,桃園國中,03-3358282#530,桃園市桃園區西門里莒光街2號,24.995819,121.305105
桃園市,建國國中,03-3630081#510,桃園市桃園區福林里介新街20號,24.977568,121.306686
桃園市,大有國中,03-2613297#510,桃園市桃園區大有里大有路215號,25.009297,121.319552
桃園市,福豐國中,03-3669547#513,桃園市桃園區福林里延平路326號,24.976341,121.314184
桃園市,陽明公園,03-3348058#3700,桃園市桃園區福林里長沙街11號(介壽街、長沙街交叉口),24.981067,121.307312
桃園市,水秀公園,03-3396122#116,桃園市桃園區文中里力行路、文中二路交叉口,24.9982,121.29347
桃園市,中興國中,03-3694315#531,桃園市桃園區文中里文中路122號,24.996296,121.290948
桃園市,同德國中,03-2628955#510,桃園市桃園區文化里南平路487號,25.015642,121.29364
桃園市,桃園國小,03-3322268#511,桃園市桃園區文化里民權路67號,24.992318,121.31022
桃園市,東門國小,03-3322057#500,桃園市桃園區東門里東國街14號,24.995151,121.314853
桃園市,五中市民活動中心,03-3348058,桃園市桃園區中山里中平路118號,24.986684,121.292754
桃園市,春日市民活動中心,03-3179695,桃園市桃園區春日里至善街133號,25.021619,121.312575
桃園市,風禾公園,03-3396122#116,桃園市桃園區中成里慈文路、文中二路交叉口,25.003031,121.296811
桃園市,新埔國小,03-3162972#510,桃園市桃園區新埔里經國路208巷36號,25.017876,121.306663
桃園市,經國國中,03-3572699#511,桃園市桃園區自強里經國路276號,25.021813,121.304074
桃園市,建國公園,03-3348058#3700,桃園市桃園區建國里桃鶯路、建成街交叉口,24.990043,121.318057
桃園市,青溪國小,03-3347883#511,桃園市桃園區青溪里自強路80號,24.999742,121.318167
桃園市,桃園高中,03-3946001#6003,桃園市桃園區三元里成功路三段38號,24.999338,121.326414
桃園市,中德市民活動中心,03-3765858,桃園市桃園區中德里國際路一段687巷61號,24.97809,121.287467
桃園市,南門市民活動中心,03-2188382,桃園市桃園區南門里三民路三段268號,24.990919,121.30597
桃園市,莊敬國小,03-3020784#511,桃園市桃園區瑞慶里莊一街107號,25.021125,121.292969
桃園市,會稽國中,03-3551496#510,桃園市桃園區會稽里大興路222號,25.016325,121.314393
桃園市,永順國小,03-3024421#510,桃園市桃園區南埔里永順街100號,25.008337,121.296978
桃園市,同德國小,03-3176403#531,桃園市桃園區同德里同德六街175號,25.014745,121.29598
桃園市,福林市民活動中心,03-3710601,桃園市桃園區福林里東勇北路20號,24.973751,121.306811
桃園市,向陽公園,03-3396122#116,桃園市桃園區中正里力行路、正光路交叉口,24.99763,121.293805
桃園市,武陵高中,03-3698170#420,桃園市桃園區中聖里中山路889號,24.98805,121.285792
桃園市,文山國小,03-3601400#510,桃園市桃園區文中里文中路120號,24.996395,121.291882
桃園市,文昌國中,03-3552776#510,桃園市桃園區信光里民生路729號,25.010462,121.307824
桃園市,同安國小,03-3269251#510,桃園市桃園區莊敬里同德十一街48號,25.021867,121.298561
桃園市,陽明高中,03-3645761#102,桃園市桃園區玉山里德壽街8號,24.980725,121.303186
桃園市,慈文國小,03-3175755#510,桃園市桃園區同安里新埔六街2號,25.012763,121.30423
桃園市,建國雲林市民活動中心,03-3610068,桃園市桃園區建國里建成街88號1、2樓,24.986955,121.315462
桃園市,慈文國中,03-3269340#510,桃園市桃園區慈文里中正路835號,25.00925,121.30145
桃園市,青溪國中,03-3392400#510,桃園市桃園區三民里中山東路124號,24.997167,121.319889
桃園市,建國國小,03-3636660#512,桃園市桃園區雲林里昆明路95號,24.983433,121.315713
桃園市,西門國小,03-3342351#52,桃園市桃園區西門里莒光街15號,24.994892,121.304018
桃園市,龍山國小,03-3691253#510,桃園市桃園區龍山里龍泉二街36號,24.9807,121.27001
桃園市,中埔國小,03-3013028#510,桃園市桃園區中埔里永安路1054號,25.009467,121.287201
桃園市,桃園農工,03-3333921#520,桃園市桃園區萬壽里成功路二段144號,24.993853,121.320657
桃園市,桃園市立綜合體育場,03-3194510#7004,桃園市桃園區三民里三民路一段1號,24.996452,121.323222
桃園市,中壢松鶴會館,(03)4271801#1508,桃園市中壢區中央里元化路182-2號,24.960342,121.227251
桃園市,中壢婦幼館,(03)4271801#1208,桃園市中壢區五權里正大街55號,24.959254,121.204444
桃園市,龍江市民活動中心,(03)4385796,桃園市中壢區龍安里龍江路99號,24.931569,121.257828
桃園市,大舊社市民活動中心,(03)4927198,桃園市中壢區光明里新明路223號,24.962185,121.216903
桃園市,自強市民活動中心,03-4271801,桃園市中壢區自強里強國路62號,24.968232,121.258739
桃園市,中華市民活動中心,(03)4628408,桃園市中壢區仁義里中華路二段369-1號,24.961893,121.235926
桃園市,水尾市民活動中心,(03)4516152,桃園市中壢區水尾里新生路598巷22號,24.970663,121.224941
桃園市,復興復華市民活動中心,(03)4520608,桃園市中壢區復華里復華街188號,24.972935,121.248262
桃園市,文化市民活動中心,(03)4524803,桃園市中壢區文化里長春三路2號1樓,24.979503,121.249583
桃園市,南園市民活動中心,(03)4620141,桃園市中壢區永福里南園二路90號,24.972729,121.233493
桃園市,後寮市民活動中心,(03)4563009,桃園市中壢區後寮里龍興路701巷21號,24.945516,121.244676
桃園市,台貿市民活動中心,(03)4650757,桃園市中壢區中堅里中堅里台貿一街100號,24.937684,121.255788
桃園市,中山市民活動中心,(03)4632760,桃園市中壢區中山里榮民路396號,24.96168,121.261501
桃園市,元生市民活動中心,(03)4554516,桃園市中壢區忠孝里元生二街126號,24.976431,121.254206
桃園市,青埔市民活動中心,(03)4534849,桃園市中壢區青埔里領航南路三段168號,25.00925,121.219931
桃園市,新明國小,03-4933262#2511,桃園市中壢區光明里中央西路二段97號,24.959126,121.215742
桃園市,東興國中,03-4583500#511,桃園市中壢區明德里明德里廣州路25號,24.949154,121.232434
桃園市,富台國小,(03)4563335＃520,桃園市中壢區中堅里中山東路3段369號,24.940255,121.252444
桃園市,華勛國小,03-4661587#511,桃園市中壢區華愛里榮民南路205號,24.953862,121.257583
桃園市,元生國小,03-462-5566#511,桃園市中壢區復華里文化二路161號,24.9745384,121.2511461
桃園市,內壢高中,(03)4528080＃252,桃園市中壢區復華里成章4街120號,24.969628,121.246527
桃園市,內壢國小,03-4635888-510,桃園市中壢區福德里福德路20號,24.973792,121.258951
桃園市,自強國中,(03)4553494＃510,桃園市中壢區自強里榮民路80號,24.96865,121.260234
桃園市,興仁國小,03-4355753#510,桃園市中壢區興仁里遠東路210號,24.967737,121.262063
桃園市,信義國小,03-4573780#510,桃園市中壢區信義里成都路55號,24.950735,121.23188
桃園市,龍岡國小,03-4588582-505,桃園市中壢區振興里龍岡路二段232號,24.942281,121.229829
桃園市,龍興國中,03-4575200#511,桃園市中壢區龍德里龍勇路100號,24.938782,121.235934
桃園市,龍岡國中,03-4562137#511,桃園市中壢區龍東里龍東路147號,24.930053,121.251841
桃園市,中正國小,03-4559313#511,桃園市中壢區中山里榮民路329號,24.963566,121.261494
桃園市,普仁國小,(03)4563830＃511,桃園市中壢區普慶里中山東路二段425號,24.948523,121.244506
桃園市,中原國小,03-4388200#511,桃園市中壢區普忠里桃園市中壢區中北路88號,24.959069,121.244146
桃園市,內定國小,03-4524624#511,桃園市中壢區內定里內定里定寧路31號,25.004342,121.231238
桃園市,青埔國小,03-4531626-511,桃園市中壢區青埔里青埔路二段122號,25.007792,121.215059
桃園市,青埔國中,03-2871886#511,桃園市中壢區青埔里領航北路2段281號,25.014323,121.210153
桃園市,芭里國小,0422-80863-,桃園市中壢區芝芭里啟文路233號,24.994819,121.202096
桃園市,山東國小,(03)4981323＃510,桃園市中壢區山東里山東一路39號,25.01621,121.173726
桃園市,興國國小,03-4258158#510,桃園市中壢區興平里元化路二段62號,24.963481,121.221909
桃園市,中壢高商,03-4929871#1618,桃園市中壢區光明里中央西路二段141巷100號,24.962306,121.21481
桃園市,中壢家商,03-4271627#501,桃園市中壢區中榮里德育路36號,24.952992,121.220093
桃園市,林森國小,03-4579213#511,桃園市中壢區林森里林森路95號,24.945443,121.226551
桃園市,大崙國中,03-4982840#511,桃園市中壢區月眉里月眉路一段50號,24.991869,121.180313
桃園市,大崙國小,03-4983424#511,桃園市中壢區月眉里15鄰崇德路139號,24.990566,121.180747
桃園市,過嶺國中,(03)4200026＃511,桃園市中壢區過嶺里17鄰松智路2號,24.960363,121.175456
桃園市,中平國小,(03)4902025＃520,桃園市中壢區過嶺里雙福路12號,24.960286,121.177263
桃園市,新明國中,03-493-6194#510,桃園市中壢區新明里中正路487巷18號,24.957553,121.213239
桃園市,自立國小,03-4559130#506,桃園市中壢區自立里永福路1200號,24.96806,121.25189
桃園市,內壢國中,03-4522494#510,桃園市中壢區福德里復華一街108號,24.9710588,121.2489252
桃園市,忠福國小,03-4340192#511,桃園市中壢區忠福里西園路57號,24.9763656,121.2346268
桃園市,興南國中,03-4629991#511,桃園市中壢區興和里育英路55號,24.9742351,121.2265069
桃園市,新街國小,03-4523202#521,桃園市中壢區新街里延平路176號,24.963148,121.228402
桃園市,國立中央大學附屬中壢高級中學,03-4932181#46,桃園市中壢區永光里三光路115號,24.962655,121.211864
桃園市,國立中央大學,03-4227151#57251,桃園市中壢區中大路300號,24.968426,121.195635
桃園市,中原大學,03-2651637,桃園市中壢區普忠里中北路200號,24.957279,121.240348
桃園市,元智大學,03-4638800-2276,桃園市中壢區興仁里遠東路135號,24.969897,121.263456
桃園市,健行學校財團法人健行科技大學,03-4581196分機3620,桃園市中壢區普仁里健行路229號,24.9480012,121.22987
桃園市,萬能學校財團法人萬能科技大學,03-4515811#23101,桃園市中壢區永福里萬能路1號,24.990418,121.232408
桃園市,南亞科技學校財團法人南亞技術學院,03-4361070#1113,桃園市中壢區龍昌里中山東路三段414號,24.936862,121.251661
桃園市,中正公園,03-4271801#3114,桃園市中壢區元化路、中美路交叉口(中央里),24.955857,121.227054
桃園市,文化公園,03-4271801#3118,桃園市中壢區文化路、吉林路交叉口(文化里),24.971829,121.25505
桃園市,水美市民活動中心,03-4782199,桃園市楊梅區水美里楊新路2段2之1號,24.918994,121.137079
桃園市,永揚社福館,09-32105199,桃園市楊梅區永寧里校前路324巷148號,24.89799,121.148222
桃園市,楊心國小,03-4758680#520,桃園市楊梅區楊梅里金華街100號,24.912118,121.143002
桃園市,楊梅國中,03-4782024#510,桃園市楊梅區紅梅里校前路149號,24.90353,121.148351
桃園市,楊明國中,03-4781525#510,桃園市楊梅區大同里新農街337號,24.910793,121.15491
桃園市,四維國小,03-4822704#511,桃園市楊梅區光華里金龍三路95號,24.912195,121.184586
桃園市,瑞塘國小,03-4316360#520,桃園市楊梅區瑞坪里瑞溪路2段100號,24.908017,121.180045
桃園市,仁美國中,03-4641123#511,桃園市楊梅區高榮里梅獅路539巷1號,24.924268,121.184059
桃園市,瑞梅國小,03-4825284#520,桃園市楊梅區梅溪里三元街99號,24.90977,121.171302
桃園市,楊明國小,03-4754929#852,桃園市楊梅區楊明里中山北路1段390巷50號,24.911465,121.159079
桃園市,瑞埔國小,03-4822018#510,桃園市楊梅區埔心里中興路133號,24.916373,121.185784
桃園市,瑞坪國中,03-4821468#511,桃園市楊梅區瑞坪里文化街535號,24.906863,121.180359
桃園市,埔心公園,03-4783683#2113,桃園市楊梅區金龍里金龍一路,24.911684,121.186436
桃園市,高榮國小,03-4782314#510,桃園市楊梅區高上里高上路1段1號,24.937024,121.163972
桃園市,楊梅高中,03-4789618#1401,桃園市楊梅區高山里高獅路5號,24.921372,121.148709
桃園市,水美國小,03-4782770#510,桃園市楊梅區水美里楊新路1段410號,24.918793,121.137533
桃園市,大同國小,03-4782249#510,桃園市楊梅區大同里新農街85號,24.909738,121.14926
桃園市,楊梅國小,03-4782016#510,桃園市楊梅區紅梅里校前路1號,24.906165,121.144597
桃園市,楊梅國中秀才分校,03-4756261#510,桃園市楊梅區秀才里秀才路919號,24.884447,121.132394
桃園市,上田國小,03-4782544#513,桃園市楊梅區上田里和平路98號,24.937805,121.126326
桃園市,瑞原國中,03-4782242#550,桃園市楊梅區瑞原里民豐路69號,24.933402,121.121713
桃園市,瑞原國小,03-4723280#510,桃園市楊梅區瑞原里民安路1號,24.926327,121.104204
桃園市,上湖國小,03-4728925#510,桃園市楊梅區上湖里上湖二路88號,24.909756,121.084903
桃園市,富岡國小,03-4721193#510,桃園市楊梅區豐野里中正路147號,24.937494,121.080704
桃園市,富岡國中,03-4721113#512,桃園市楊梅區豐野里中正路456號,24.941913,121.074815
桃園市,南崁國小,03-3115578#510,桃園市蘆竹區長壽里吉林路160號,25.050201,121.300935
桃園市,光明國小,03-3127066#511,桃園市蘆竹區南興里南昌路255號,25.040876,121.290791
桃園市,光明河濱公園,03-2220465,桃園市蘆竹區錦興里光明路二段,25.045085,121.288366
桃園市,光明市民活動中心,0935646329,桃園市蘆竹區錦興里18鄰光明路2段33號(1、2F),25.045707,121.287473
桃園市,大竹國中,03-3232764#511,桃園市蘆竹區上竹里大竹路國中巷35號,25.024225,121.259882
桃園市,上竹市民活動中心,0932268271,桃園市蘆竹區上竹里博愛街22號(2F),25.024334,121.261486
桃園市,蘆竹區公所三樓,03-2220248,桃園市蘆竹區南崁里南崁路150號(3F),25.04692,121.295126
桃園市,蘆竹區婦幼館,03-3122120,桃園市蘆竹區瓦窯里仁愛路一段2號(B1),25.050687,121.293477
桃園市,海湖第一市民活動中心,0937951163,桃園市蘆竹區海湖里海湖東路217號(3F),25.102815,121.268311
桃園市,富竹市民活動中心,0938362611,桃園市蘆竹區富竹里富竹街109號(3F),25.03074,121.264048
桃園市,營盤市民活動中心,0917289802,桃園市蘆竹區營盤里中山路108巷21號(3F),25.0565,121.299256
桃園市,彎頭仔市民活動中心,0934309931,桃園市蘆竹區山腳里18鄰山外路117號(3F),25.082985,121.288115
桃園市,宏竹市民活動中心,0913510378,桃園市蘆竹區宏竹里宏華街10號(1、2F),25.04162,121.255534
桃園市,公埔市民活動中心,0972341144,桃園市蘆竹區內厝里8鄰南山路2段394巷67號(1F),25.071559,121.287741
桃園市,大竹老人集會所,0921169267,桃園市蘆竹區大竹里南竹路5段210巷1弄1號(2F),25.026142,121.259895
桃園市,後壁厝市民活動中心,0932270135,桃園市蘆竹區坑口里南山北路2段378號(1F),25.105547,121.274938
桃園市,蘆竹國小,03-3221731#511,桃園市蘆竹區蘆竹里富國路2段850號,25.050819,121.267126
桃園市,大南興市民活動中心,0910302243,桃園市蘆竹區順興里5鄰南昌路36號(3F),25.04182,121.28822
桃園市,南榮市民活動中心,0932098061,桃園市蘆竹區南榮里桃園街9號(2F),25.042743,121.293262
桃園市,南青市民活動中心,0911240679,桃園市蘆竹區蘆竹里南青路850巷50號(1F),25.052928,121.26266
桃園市,興仁市民活動中心,0935768488,桃園市蘆竹區中興里興仁路330-1號(1F),25.014284,121.262019
桃園市,五福市民活動中心,0919278652,桃園市蘆竹區五福里5鄰福祿五街18號(4F),25.053599,121.296197
桃園市,外社市民活動中心,0936398891,桃園市蘆竹區外社里12鄰山林路2段471號(1、2、4F),25.082657,121.305474
桃園市,光明國中,03-3114355#510,桃園市蘆竹區興榮里光明路1段123號,25.044422,121.28925
桃園市,南崁國中,03-3525590#510,桃園市蘆竹區五福里五福六路1號,25.054686,121.298579
桃園市,錦興國小,03-3228487#510,桃園市蘆竹區興榮里南竹路1段100號,25.046704,121.289697
桃園市,南崁高中,03-3525580#515,桃園市蘆竹區五福里仁愛路2段1號,25.052454,121.297583
桃園市,公埔國小,03-3243852#511,桃園市蘆竹區內厝里南山路二段448號,25.071812,121.285966
桃園市,頂社國小,03-3241182#510,桃園市蘆竹區坑子里山林路三段232號,25.077853,121.320331
桃園市,外社國小,03-3241874#512,桃園市蘆竹區外社里山林路二段525號,25.082419,121.306579
桃園市,山腳國小,03-3241884#511,桃園市蘆竹區山腳里南山路三段440號,25.088463,121.28765
桃園市,山腳國中,03-3241995#511,桃園市蘆竹區山腳里海山路319號,25.088162,121.278611
桃園市,海湖國小,03-3542181#513,桃園市蘆竹區海湖里海湖東路191巷15號,25.10234,121.267233
桃園市,龍安國小,03-3922797#520,桃園市蘆竹區新興里文中路一段35號,24.992025,121.273056
桃園市,新興國小,03-3602448#510,桃園市蘆竹區新興里新興街355號,25.008305,121.264821
桃園市,大竹國小,03-3232917#511,桃園市蘆竹區大竹里大竹路556號,25.024197,121.258779
桃園市,新莊國小,03-3231264#510,桃園市蘆竹區新莊里大新路380巷121號,25.027759,121.246413
桃園市,大華國小,03-3232664#510,桃園市蘆竹區宏竹里大華街98號,25.039256,121.254247
桃園市,北港市民活動中心,0933145579,桃園市大園區北港里9鄰潮音二路226號,25.076208,121.169248
桃園市,大園國小,03-3862030#510,桃園市大園區橫峰里中正東路160號,25.060144,121.202701
桃園市,大園市民活動中心,0932169971,桃園市大園區大園里和平東路89號1樓,25.062649,121.200352
桃園市,大園區老人文康活動中心,03-3842494,桃園市大園區田心里大觀路118號,25.065996,121.193567
桃園市,大園國中,03-3862029#510,桃園市大園區南港里園科路400號,25.053528,121.171138
桃園市,竹圍國中,03-3835026#511,桃園市大園區沙崙里2鄰海港路2巷87號,25.109701,121.238647
桃園市,航空城客運園區公1公園,03-3396122#101,桃園市大園區南港里園科路、科二街交叉口,25.057213,121.172672
桃園市,菓林國小,03-3835096#510,桃園市大園區菓林里12鄰41號,25.07749,121.256047
桃園市,溪海國小,03-3862174＃510,桃園市大園區溪海里和平西路一段420號,25.046873,121.186725
桃園市,潮音國小,03-3862834#510,桃園市大園區北港里潮音路一段188號,25.0652601,121.1730075
桃園市,內海國小,03-3862844#510,桃園市大園區內海里學府路76巷32號,25.086556,121.190695
桃園市,埔心國小,03-3812304#510,桃園市大園區埔心里大園區中正東路一段189巷35號,25.049073,121.225201
桃園市,五權國小,03-3812803#510,桃園市大園區五權里大園區中正東路二段539號,25.023807,121.231067
桃園市,大園國際高中,03-3813001#510,桃園市大園區橫峰里大園區大成路二段8號,25.035015,121.212421
桃園市,文欣國小-3類,03-3974893#511,桃園市龜山區文化里文昌五街95號,25.057796,121.371658
桃園市,山頂國小-3類,03-3207244#511,桃園市龜山區山德里頂興路2號,24.991959,121.327594
桃園市,山福市民活動中心-2類,0937956126,桃園市龜山區山福里中興路152號,24.989139,121.331928
桃園市,龍華市民活動中心2類,02-82001127,桃園市龜山區龍華里萬壽路一段422巷22弄43-1號,25.017776,121.40088
桃園市,文化市民活動中心-2類,03-3979190,桃園市龜山區文化里文昌五街99號,25.056775,121.370577
桃園市,山頂市民活動中心-2類,03-3293119,桃園市龜山區山頂里明興街36號,24.986068,121.330585
桃園市,大崗市民活動中心-2類,03-3281906,桃園市龜山區大崗里忠義路二段491號,25.051835,121.358693
桃園市,大華市民活動中心-1類,0932797572,桃園市龜山區大華里文化七路118巷7號,25.050746,121.366195
桃園市,大華公園-4類,03-3203711#778,桃園市龜山區大華里文化七路、文華國小旁,25.054134,121.36071
桃園市,文華國小-3類,03-2723078#513,桃園市龜山區大華里文化七路116號,25.051131,121.365071
桃園市,龜山區公所3樓禮堂-1類,03-3203711#800,桃園市龜山區新路里中山街26號,24.992533,121.337821
桃園市,樂善國小-3類,03-3281002#511,桃園市龜山區樂善里樂學路339巷2號,25.052381,121.382634
桃園市,幸福國小-3類,03-3203571#511,桃園市龜山區山福里頂興路115巷20號,24.989152,121.330263
桃園市,龜山國小-3類,03-3203571#511,"桃園市龜山區龜山里萬壽路二段 933巷14號",24.99407,121.339314
桃園市,幸福國中-3類,03-3298992#512,桃園市龜山區幸福里中興路100巷20號,24.987998,121.332102
桃園市,迴龍國中小-3類,02-82096088#511,桃園市龜山區迴龍里萬壽路一段168號,25.019425,121.405103
桃園市,龜山國中-3類,03-3205681#510,桃園市龜山區龜山里自強西路66號,24.997468,121.338656
桃園市,新路國小-3類,03-3203890#511,桃園市龜山區新路里永和街12號,24.995201,121.336513
桃園市,楓樹國小-3類,03-3206166#511,桃園市龜山區楓樹里光峰路277號,25.005843,121.342942
桃園市,自強國小-3類,03-3590758#510,桃園市龜山區龜山里龜山區自強東路269號,24.99934,121.339396
桃園市,壽山高中-3類,03-3501778#510,桃園市龜山區龜山里龜山區大同路23號,24.994807,121.340954
桃園市,福源國小-3類,03-3297276#514,桃園市龜山區兔坑里龜山區大同路916號,24.988152,121.358506
桃園市,龍壽國小-3類,03-3203711#806,桃園市龜山區龍壽里龍壽里龍校街30號,25.002981,121.395089
桃園市,壽山國小-3類,03-3291782#511,桃園市龜山區嶺頂里萬壽路二段六巷61號,25.002753,121.364303
桃園市,南美國小-3類,03-3126250#512,桃園市龜山區南美里南上路99號,25.04782,121.296951
桃園市,大坑國小-3類,03-3252430#510,桃園市龜山區大坑里大坑路一段850號,25.044998,121.31459
桃園市,大崗國小-3類,03-3282457#511,桃園市龜山區大崗里大湖一路175號,25.052326,121.357744
桃園市,大湖國小-3類,03-3270501#511,桃園市龜山區大湖里文三二街80號,25.057645,121.359663
桃園市,大崗國中-3類,03-3280888#511,桃園市龜山區文化里文化二路168號,25.052012,121.371379
桃園市,長庚國小-3類,03-3182643#510,桃園市龜山區長庚里長庚醫護新村425號,25.06176,121.387054
桃園市,大埔國小-3類,03-3298329#510,桃園市龜山區舊路里振興路1169號,25.030304,121.375164
桃園市,長庚大學-3類,03-2118800#3206,桃園市龜山區文青里文化一路259號,25.033922,121.389501
桃園市,長庚科技大學-3類,03-2118999#5521,桃園市龜山區文青里文化一路261號,25.029564,121.38961
桃園市,銘傳大學-3類,03-3507001#3272,"桃園市龜山區德明路 5 號",24.984739,121.344382
桃園市,國立體育大學-3類,03-3283201#5002,桃園市龜山區文青里文化一路250號,25.034455,121.383537
桃園市,東安國小,03-4509571#510,桃園市平鎮區東安里平東路136號,24.917743,121.250265
桃園市,南勢國小,03-4393724#511,桃園市平鎮區南勢里中豐路南勢二段223號,24.913512,121.210656
桃園市,山豐國小,03-4691784#510,桃園市平鎮區山峰里中豐路山頂段375巷45號,24.896645,121.213305
桃園市,文化國小,03-4921750#510,桃園市平鎮區復興里文化街189號,24.953227,121.203771
桃園市,宋屋國小,03-4933654#510,桃園市平鎮區廣仁里延平路二段389號,24.941904,121.206367
桃園市,祥安國小,03-4192136#511,桃園市平鎮區湧安里湧安路45號,24.894051,121.202952
桃園市,長青文康中心,03-4572105#2201,桃園市平鎮區平南里開封街88號,24.911041,121.204265
桃園市,獅子林市民活動中心,03-4578357,桃園市平鎮區北貴里北貴里大仁街46號,24.928193,121.225399
桃園市,義興國小,03-4913700#510,桃園市平鎮區義興里義興街55號,24.949306,121.209935
桃園市,東安國中,03-4601407#510,桃園市平鎮區東安里平東路168號,24.916824,121.249408
桃園市,新勢公園,03-4572105#2383,桃園市平鎮區新勢里延平路與中豐路口,24.951798,121.219961
桃園市,東勢國小,03-4504034#510,桃園市平鎮區東勢里平東路一段185號,24.911169,121.232001
桃園市,北勢市民活動中心,03-4281848,桃園市平鎮區北華里振平街153號,24.942508,121.220574
桃園市,平鎮區婦幼活動中心,03-4572105#2201,桃園市平鎮區廣達里廣達里廣成街10號,24.953375,121.209755
桃園市,廣仁市民活動中心,03-4951157,桃園市平鎮區廣仁里新光路65巷50號,24.939468,121.206169
桃園市,鎮興市民活動中心,03-4643456,桃園市平鎮區鎮興里中興路平鎮段229號,24.905076,121.190651
桃園市,平興國中,03-4918239#521,桃園市平鎮區義民里環南路300號,24.949577,121.206051
桃園市,莊敬市民活動中心,0928285597,桃園市平鎮區莊敬里莊敬里自強街100號,24.904124,121.21491
桃園市,山子頂市民活動中心,09-27701228,桃園市平鎮區湧安里麻園街2號,24.892939,121.202979
桃園市,平南國中,03-4392164#510,桃園市平鎮區平南里中豐路南勢二段340號,24.910049,121.210967
桃園市,三安市民活動中心,03-4605346,桃園市平鎮區平東路203號,24.916001,121.24965
桃園市,新勢市民活動中心,0933950600,桃園市平鎮區新勢里延平路一段162號,24.950796,121.21632
桃園市,平興國小,03-4029323#510,桃園市平鎮區平興里廣泰路168號,24.944984,121.203435
桃園市,平鎮國中,03-4572150#511,桃園市平鎮區新富里振興路2號,24.944991,121.218237
桃園市,平鎮高中,03-4287288#510,桃園市平鎮區北興里環南路三段100號,24.939511,121.219063
桃園市,北勢國小,03-4586472#511,桃園市平鎮區北興里金陵路二段330號,24.935853,121.223636
桃園市,忠貞國小,03-4501450#510,桃園市平鎮區龍興里籠南路315號,24.922726,121.250525
桃園市,復旦國小,03-4917491#510,桃園市平鎮區廣達里廣平街1號,24.954733,121.20769
桃園市,新榮國小,03-2806200#520,桃園市平鎮區新勢里中原路88號,24.952646,121.218208
桃園市,中壢國中,03-4223214#510,桃園市平鎮區新勢里延平路一段115號,24.950859,121.218743
桃園市,新勢國小,03-4937563#511,桃園市平鎮區新勢里延平路一段181號,24.950043,121.216893
桃園市,國立臺北商業大學(桃園校區),03-4506333#8031,桃園市平鎮區福林里福龍路一段100號,24.898857,121.228786
桃園市,第一市民活動中心,03-4563880,桃園市平鎮區貿五路77號,24.92752,121.252967
桃園市,新英市民活動中心,03-4285677,桃園市平鎮區新富里新富五街66號3樓,24.93958,121.21352
桃園市,中正市民活動中心,03-4569120,桃園市平鎮區中正里平鎮區中正里中正一路2之1號,24.926154,121.255847
桃園市,清華市民活動中心,03-4972778,桃園市新屋區清華里清文路229號4樓,24.973488,121.115675
桃園市,下田市民活動中心,03-4862724,桃園市新屋區下田里3鄰中山西路2段780號,24.983083,121.059552
桃園市,松柏會老人文康活動中心,03-4766658,桃園市新屋區笨港里2鄰文福路36號,24.977295,121.026397
桃園市,新屋區婦幼館,03-4870527,桃園市新屋區新生里中山路370號3、4樓,24.972874,121.104198
桃園市,頭洲市民活動中心,03-4906688,桃園市新屋區頭洲里福洲一街40號二樓,24.963484,121.146022
桃園市,新屋市民活動中心,03-4778168,桃園市新屋區中山路267巷1號,24.972401,121.104985
桃園市,頭洲國小,4901204-510,桃園市新屋區頭洲里校前路72號,24.962513,121.142435
桃園市,新屋國小,4772016-511,桃園市新屋區新生里中正路196號,24.974081,121.102033
桃園市,啟文國小,4772077-51,桃園市新屋區清華里新文路762號,24.978812,121.116311
桃園市,埔頂國小,4772240-510,桃園市新屋區埔頂里中華南路二段50號,24.957577,121.115782
桃園市,東明國小,4772500-510,桃園市新屋區東明里中山西路一段474號,24.97653,121.084723
桃園市,社子國小,4772444-61,桃園市新屋區社子里社福路235號,24.956616,121.082078
桃園市,昭靈宮公園,4772111-291,桃園市新屋區蚵間里文化路一段、桃103號交叉口,24.947944,121.007983
桃園市,北湖國小,4862415-51,桃園市新屋區石牌里東興路二段780號,25.004836,121.049578
桃園市,永安國中,4862507-510,桃園市新屋區中山西路三段96號,24.988778,121.044259
桃園市,永安國小,04862224-510,桃園市新屋區中山西路二段1320號,24.987397,121.046651
桃園市,大坡國中,4768350-,桃園市新屋區大坡里民有二路二段100號,24.961725,121.039779
桃園市,大坡國小,4768311-510,桃園市新屋區大坡里國校路11號,24.957384,121.040571
桃園市,蚵間國小,4768413-51,桃園市新屋區後庄里文化路一段636號,24.948134,121.00859
桃園市,笨港國小,4769113-510,桃園市新屋區笨港里2鄰文學路22號,24.97424,121.026341
桃園市,新屋高中,04772029-510,桃園市新屋區新屋里中興路111號,24.970099,121.101834
桃園市,凌雲國中,03-4792604#511,桃園市龍潭區上林里中豐路上林段418號,24.858944,121.202436
桃園市,高平第二市民活動中心,03-4717359,桃園市龍潭區高平里高楊南路180號,24.835342,121.212008
桃園市,潛龍國小,03-4792153#520,桃園市龍潭區烏林里中豐路401號,24.880782,121.211276
桃園市,上華市民活動中心,03-4792222,桃園市龍潭區上華里大順路209號,24.85076,121.217828
桃園市,龍祥市民活動中心,03-4803888,桃園市龍潭區凌雲里干城路19巷26號,24.868797,121.207238
桃園市,龍潭高中,03-4792829#161,桃園市龍潭區龍星里神龍路155號,24.861473,121.213087
桃園市,德龍國小,03-4792524#510,桃園市龍潭區聖德里聖德里聖亭路八德段451巷140號,24.88224,121.194844
桃園市,武漢國小,03-4792873#510,桃園市龍潭區武漢里武漢路100號,24.870849,121.234572
桃園市,龍潭區婦幼館,03-4799509,桃園市龍潭區凌雲里干城路19巷30號,24.86882,121.206745
桃園市,龍潭運動公園,03-4793070#1135,桃園市龍潭區中山里公園路67號,24.867388,121.219295
桃園市,雙龍國小,03-4991888#510,桃園市龍潭區中正里神龍路346號,24.857313,121.215153
桃園市,龍潭國中,03-4792075#511,桃園市龍潭區中正里龍華路460號,24.85629,121.217211
桃園市,武漢國中,03-4806468#510,桃園市龍潭區黃唐里武中路227號,24.878959,121.232001
桃園市,富林市民活動中心,03-4705872,桃園市龍潭區富林里建國路278號,24.84685,121.231578
桃園市,龍星國小,03-4797299#510,桃園市龍潭區龍星里中正路269號,24.862749,121.217971
桃園市,凌雲市民活動中心,03-4793070#1114,桃園市龍潭區凌雲里干城路19巷28號,24.868855,121.207046
桃園市,新生醫護管理專科學校,03-4117578#410,桃園市龍潭區高平里中豐路高平段418號,24.832353,121.207098
桃園市,龍源國小,03-4717149#510,桃園市龍潭區高平里龍源路121巷110弄39號,24.825821,121.211941
桃園市,三和國小,03-4792154#510,桃園市龍潭區三和里龍新路三和段1356號,24.847835,121.167978
桃園市,龍潭國小,03-4792014#510,桃園市龍潭區龍潭里南龍路13號,24.86391,121.213652
桃園市,石門國小,03-4711752#512,桃園市龍潭區佳安里文化路188號,24.841982,121.241266
桃園市,石門國中,03-4713610#510,桃園市龍潭區佳安里文化路137號,24.840798,121.240105
桃園市,三坑國小,03-4713627#510,桃園市龍潭區三坑里永昌路51巷85號,24.836296,121.248452
桃園市,高原國小,03-4717009#520,桃園市龍潭區高原里高原路568號,24.830207,121.194156
桃園市,大成國小,03-3661155#510,桃園市八德區大成里廣福路31號,24.958632,121.29849
桃園市,茄明市民活動中心,0910260737,桃園市八德區茄明里中華路27號,24.986235,121.281854
桃園市,高城市民活動中心,03-3692735,桃園市八德區高城里高城六街60號,24.978981,121.274037
桃園市,大勇國小,03-3682943#510,桃園市八德區大勇里自強街60號,24.968004,121.304039
桃園市,八德社福館三樓,03-3752690,桃園市八德區大智里大智里福國北街220號,24.963117,121.296843
桃園市,正福市民活動中心,03-3683155,桃園市八德區大福里大福街29號,24.974657,121.300773
桃園市,青少年活動中心,03-3683155#108,桃園市八德區大發里興豐路2207號,24.953479,121.325365
桃園市,大漢市民活動中心,03-3764158,桃園市八德區大漢里東勇一路51號,24.964174,121.305074
桃園市,瑞發市民活動中心,03-3688808,桃園市八德區瑞發里瑞發街55號,24.933741,121.299139
桃園市,瑞興市民活動中心,03-3682846,桃園市八德區瑞興里豐田路250號,24.932801,121.289438
桃園市,大發市民活動中心,03-3628736,桃園市八德區大發里興豐路2175號,24.952669,121.32352
桃園市,大宏市民活動中心,03-3643932,桃園市八德區大宏里公園路139號,24.968121,121.297739
桃園市,霄裡國小,03-3651101#510,桃園市八德區竹園里山下街115號,24.93635,121.264217
桃園市,建德公園,3683155#231,桃園市八德區興仁里建德路,24.924031,121.281579
桃園市,大湳公園,3683155#231,桃園市八德區大智里福國北街185巷3弄8號,24.962315,121.295598
桃園市,八德國中,03-3685322#510,桃園市八德區興仁里興豐路321號,24.929876,121.286762
桃園市,大忠國小,03-3635206#510,桃園市八德區大忠里忠誠街18號,24.959893,121.300782
桃園市,大成國中,03-3625633#510,桃園市八德區大千里忠勇街12號,24.958403,121.3051
桃園市,八德國小,03-3682943#510,桃園市八德區興豐路222號,24.928849,121.283683
桃園市,永豐高中,03-3789414＃510,桃園市八德區永豐里永豐路609號,24.975529,121.270099
桃園市,茄苳國小,03-3611425#510,桃園市八德區茄苳里永豐路155號,24.964789,121.278436
桃園市,廣興國小,03-3666007#510,桃園市八德區廣德里廣興路601巷25號,24.945345,121.282718
桃園市,大安國小,03-3661419#510,桃園市八德區大安里和平路638號,24.956365,121.315315
桃園市,瑞豐國小,03-3682787#510,桃園市八德區瑞泰里介壽路2段933巷40號,24.935603,121.29835
桃園市,仁和市民活動中心,0972-051093,桃園市大溪區仁和里仁和七街159號3樓,24.897672,121.273867
桃園市,仁善市民活動中心,03-3908885,桃園市大溪區仁善里仁德街19號3樓,24.914182,121.281628
桃園市,月眉市民活動中心,0912-217691,桃園市大溪區月眉里月湖路56號,24.889621,121.287869
桃園市,綜合市民活動中心,0910-038992,桃園市大溪區仁武里公園路30號2樓,24.904834,121.284103
桃園市,中興市民活動中心,0932-092430,桃園市大溪區中新里大鶯路1450巷26號,24.928566,121.316941
桃園市,下田心市民活動中心,03-3870246,桃園市大溪區一心里民權東路94巷29號,24.881361,121.291286
桃園市,新峰市民活動中心,0931394091,桃園市大溪區新峰里復興路二段758巷48號,24.831164,121.329657
桃園市,大溪埔頂公園,03-3882201#508,桃園市大溪區仁善里埔仁路、仁善街交叉口,24.909462,121.283835
桃園市,大溪高中,03-3878628#512,桃園市大溪區一德里康莊路641號,24.869053,121.284985
桃園市,大溪國小,03-3882040#510,桃園市大溪區福仁里登龍路19號,24.884204,121.286637
桃園市,大溪國中,03-.3882024#511,桃園市大溪區一心里民權東路210號,24.879847,121.295793
桃園市,瑞祥國小,03-3801197#510,桃園市大溪區瑞源里石園路760巷120號,24.867926,121.252774
桃園市,南興國小,03-3801721#510,桃園市大溪區南興里仁和路二段135號,24.902971,121.266824
桃園市,員樹林國小,03-3801502#510,桃園市大溪區員林里員林路二段450號,24.882887,121.266018
桃園市,仁善國小,03-3801710#510,桃園市大溪區仁善里埔頂路二段109號,24.908885,121.278962
桃園市,田心國小,03-3872008#511,桃園市大溪區一心里文化路120號,24.880464,121.29215
桃園市,大溪多目體育館,03-3882210#510,桃園市大溪區福仁里登龍路22號,24.883527,121.286863
桃園市,中興國小,03-3801394#110,桃園市大溪區大鶯路1125號,24.925204,121.310931
桃園市,僑愛國小,(03)3801896＃510,桃園市大溪區介壽路214號,24.92071,121.292255
桃園市,仁和國小,03-3076626＃510,桃園市大溪區仁和二街50號,24.897362,121.277398
桃園市,仁和國中,03-3906626＃510,桃園市大溪區仁和七街55號,24.894538,121.274137
桃園市,永福國小,03-3875709#510,桃園市大溪區信義路1165號,24.892554,121.325864
桃園市,美華國小,03-3882403＃510,桃園市大溪區美華里15鄰金山路50號,24.881675,121.304632
桃園市,內柵國小,03-3882461＃510,桃園市大溪區義和里安和路38號,24.855884,121.282096
桃園市,百吉國小,03-3883956#511,桃園市大溪區環湖路二段845號,24.823447,121.310996
桃園市,福安國小,03-3882374#510,桃園市大溪區復興路一段755號,24.85076,121.288865
桃園市,觀音區公所綠資源中心,03-4732121#126,桃園市觀音區觀音里16鄰觀新路56號,25.028089,121.083528
桃園市,廣福市民活動中心,03-4733334,桃園市觀音區廣福里福山路二段403巷6號,25.018809,121.153242
桃園市,富林國民小學,03-4839049#51,桃園市觀音區富林里大觀路三段466號,25.036629,121.120802
桃園市,樹林國民小學,03-4830414#510,桃園市觀音區樹林里新村路二段12號,25.062166,121.12819
桃園市,富林-草新市民活動中心,03-4839559,桃園市觀音區富林里一心路180號,25.037789,121.138639
桃園市,草漯國民小學,03-4830160#510,桃園市觀音區草漯里新生路1462號,25.045715,121.143217
桃園市,大潭市民活動中心,03-4732121,桃園市觀音區大潭里16鄰保生三街61號,25.024383,121.057257
桃園市,樹林市民活動中心,03-4834817,桃園市觀音區樹林里泰安街209號,25.050621,121.123279
桃園市,上大國民小學,4901174#511,桃園市觀音區上大里大湖路一段540號,24.978753,121.146786
桃園市,草漯國民中學,03-4830146#510,桃園市觀音區草新里四維路73號,25.044378,121.140567
桃園市,崙坪國民小學,03-4981286#510,桃園市觀音區崙坪里學府路123號,24.999977,121.151837
桃園市,樹林公園,03-4732121#109,桃園市觀音區樹林里建國路、民生路交叉口,25.052671,121.125555
桃園市,保生國民小學,03-4732054,桃園市觀音區保生里仁愛路二段521號,25.023008,121.052796
桃園市,大潭國民小學,03-4732087,桃園市觀音區大潭里濱海路大潭段687號,25.021279,121.059022
桃園市,觀音國民中學,03-4732034#510,桃園市觀音區白玉里下庄子53之1號,25.039249,121.080727
桃園市,觀音國民小學,03-4732009#510,桃園市觀音區觀音里文化路2號,25.035359,121.082832
桃園市,新坡國民小學,03-4981534＃510,桃園市觀音區新坡里中山路二段717號,25.01292,121.137623
桃園市,觀音高級中學,03-4981464#310,桃園市觀音區新坡里中山路二段519號,25.014817,121.132835
桃園市,育仁國民小學,03-4732720＃530,桃園市觀音區坑尾里育仁路二段1號,25.013217,121.102563
桃園市,奎輝里活動中心,03-3821500#1206,桃園市復興區奎輝里3鄰羅馬路3段355號1樓,24.796986,121.33437
桃園市,義盛市民活動中心,03-3821500#1206,桃園市復興區義盛里1鄰下宇內9號,24.789999,121.378331
桃園市,三光市民活動中心,03-3912237,桃園市復興區三光里5鄰18號,24.673123,121.36639
桃園市,長興里辦公處,03-3821500#1206,桃園市復興區長興里10鄰35之1號,24.800166,121.307153
桃園市,三民社區活動中心,03-3821500,桃園市復興區三民里5鄰丸山56號,24.829908,121.332075
桃園市,澤仁里辦公處,03-3822275,桃園市復興區澤仁里中正路150巷5號,24.818199,121.351183
桃園市,霞雲社區活動中心,03-3821500#1206,桃園市復興區霞雲里6鄰21-1號,24.816841,121.383893
桃園市,奎輝獵人學校,03-3821500#1206,桃園市復興區奎輝里9鄰14號,24.781693,121.320672
桃園市,角板山公園,03-3821500#1206,桃園市復興區澤仁里中正路、中山路交叉口,24.814181,121.350988
桃園市,華陵里辦公處,03-3913286,桃園市復興區華陵里7鄰23之3號,24.67821,121.384528
桃園市,奎輝國小,03-3822177#510,桃園市復興區奎輝里羅馬路三段356號,24.797301,121.334209
桃園市,介壽國小,03-3822364#51,桃園市復興區澤仁里中正路33號,24.815484,121.350911
桃園市,三民國小,03-3825294#51,桃園市復興區三民里11鄰復興路二段771號,24.832782,121.330834
桃園市,高義國小,03-3912251#22,桃園市復興區高義里3鄰28號,24.711668,121.360395
桃園市,三光國小,03-3912230#510,桃園市復興區三光里4鄰8號,24.67385,121.367213
桃園市,巴崚國小,03-3912131#311,桃園市復興區華陵里9鄰巴陵75號,24.685421,121.397167
桃園市,光華國小,03-3912325#510,桃園市復興區華陵里4鄰哈嘎灣12號,24.655353,121.39952
桃園市,霞雲國小,03-3822224#51,桃園市復興區霞雲里6鄰流霞路151號,24.821708,121.381396
桃園市,羅浮國小,03-3822269#511,桃園市復興區羅浮里3鄰16號,24.797515,121.365359
桃園市,義盛國小,03-3822787#51,桃園市復興區義盛里1鄰宇內路130號,24.790897,121.379279
桃園市,長興國小,03-3822178#51,桃園市復興區長興里10鄰羅馬路四段208號,24.800124,121.30754
桃園市,羅浮高中,03-3825585#510,桃園市復興區3鄰18號,24.797262,121.364496
桃園市,羅浮市民活動中心,03-3822611,桃園市復興區羅浮里5鄰羅浮111-10號,24.796,121.3628
金門縣,金沙鎮官嶼里辦公處,082-351715,金門縣金沙鎮官嶼里官澳82-2號,24.520078,118.414326
金門縣,金沙鎮浦山里辦公處,082-352848,金門縣金沙鎮浦山里浦山里浦邊4-3號,24.480077,118.390818
金門縣,金沙鎮西園里辦公處,082-355824,金門縣金沙鎮西園里西園里西園1-3號,24.502372,118.411773
金門縣,金沙國中體育館,082-352560,金門縣金沙鎮汶沙里國中路61號,24.490596,118.415547
金門縣,金沙鎮汶沙里辦公處,082-352556,金門縣金沙鎮汶沙里汶沙里國中路1-1號,24.489304,118.414272
金門縣,金沙鎮光前里辦公處,082-354029,金門縣金沙鎮光前里光前里陽翟96-5號,24.478458,118.427027
金門縣,金沙鎮三山里辦公處,082-353250,金門縣金沙鎮三山里三山里碧山58-1號,24.485399,118.441113
金門縣,金沙鎮大洋里辦公處,082-331963,金門縣金沙鎮大洋里大洋里東山22號,24.477571,118.461873
金門縣,金沙鎮何斗里辦公處,082-352582,金門縣金沙鎮何斗里何斗里斗門55-3號,24.473763,118.401718
金門縣,金沙鎮公所,082-352150,金門縣金沙鎮汶沙里環島東路一段112號2樓,24.488992,118.413287
金門縣,青嶼活動中心,082-353150,金門縣金沙鎮官嶼里青嶼76號,24.520778,118.423185
金門縣,太武社區活動中心,082-354029,金門縣金沙鎮光前里太武社區1-1號,24.47688,118.428971
金門縣,東西山前活動中心,082-351195,金門縣金沙鎮三山里西山前8-3號,24.492843,118.42752
金門縣,新前墩活動中心,082-333517,金門縣金沙鎮大洋里新前墩36號,24.45569,118.45123
金門縣,田浦大地活動中心,082-331131,金門縣金沙鎮大洋里大地73號,24.474214,118.459253
金門縣,何厝社區活動中心,082-352150,金門縣金沙鎮何斗里何厝72號,24.472953,118.396998
金門縣,后浦頭暨五福街社區活動中心,082-352150,金門縣金沙鎮汶沙里后浦頭151號,24.485852,118.412502
金門縣,后水頭社區活動中心,082-352150,金門縣金沙鎮光前里后水頭50-1號,24.48199,118.415355
金門縣,蔡厝民享社區活動中心,082-352150,金門縣金沙鎮光前里蔡厝68號,24.472052,118.417185
金門縣,金湖鎮料羅里辦公處,082-330889,金門縣金湖鎮料羅里料羅16-4號,24.416412,118.436381
金門縣,金湖鎮新湖里辦公處,082-332528,金門縣金湖鎮新湖里湖前62-1號,24.436132,118.410535
金門縣,金湖鎮新市里辦公處,082-332131,金門縣金湖鎮新市里林森路6-1號,24.4416,118.416743
金門縣,金湖鎮公所,082-332528,金門縣金湖鎮新市里林森路二號,24.441389,118.417039
金門縣,金湖鎮山外里辦公處,082-331183,金門縣金湖鎮山外里山外里80-5號,24.445422,118.415182
金門縣,金湖鎮蓮庵里辦公處,082-332265,金門縣金湖鎮蓮庵里東村43號,24.4275,118.445612
金門縣,金湖鎮正義里辦公處,082-325439,金門縣金湖鎮正義里成功65-1號,24.439105,118.390187
金門縣,金湖鎮瓊林里辦公處,082-332426,金門縣金湖鎮瓊林里瓊林236-1號,24.455316,118.372945
金門縣,金湖鎮溪湖里辦公處,082-332529,金門縣金湖鎮溪湖里溪邊80號,24.442613,118.460274
金門縣,金門縣綜合體育館金湖館,082-335311,金門縣金湖鎮山外里士校路5號,24.450778,118.435903
金門縣,金湖鎮下莊社區活動中心,0933589874,金門縣金湖鎮山外里下莊50號,24.451644,118.427875
金門縣,金湖鎮新市社區活動中心,0912540180,金門縣金湖鎮新市里林森路2-6號,24.442682,118.418155
金門縣,金湖鎮夏興社區活動中心,0912152666,金門縣金湖鎮正義里夏興89-1號,24.439944,118.394338
金門縣,金湖鎮信義新村社區活動中心,0933699372,金門縣金湖鎮新湖里信義新村200號,24.434885,118.409707
金門縣,金湖鎮小徑村社區活動中心,0911193158,金門縣金湖鎮瓊林里小徑村19號,24.454346,118.373247
金門縣,金湖鎮正義社區活動中心,0911097415,金門縣金湖鎮正義里成功64-2號,24.438672,118.389925
金門縣,金湖鎮尚義社區活動中心,0953118761,金門縣金湖鎮正義里尚義村24-5號,24.438459,118.377425
金門縣,金湖鎮料羅灣社區活動中心,0932817823,金門縣金湖鎮料羅里料羅里50號,24.419317,118.434539
金門縣,金湖鎮林兜社區活動中心,0932838583,金門縣金湖鎮新湖里金門縣金湖鎮林兜50號,24.440404,118.410084
金門縣,金湖鎮后園社區活動中心,0908925801,金門縣金湖鎮新湖里金門縣金湖鎮后園50號,24.435168,118.408979
金門縣,金湖鎮東村社區活動中心,0932970287,金門縣金湖鎮金門縣金湖鎮東村50號,24.434373,118.420751
金門縣,盤山村辦公處,082-325755,金門縣金寧鄉盤山村頂堡150號,24.448979,118.339071
金門縣,古寧頭村辦暨活動中心,082-329376,金門縣金寧鄉古寧村北山10之3號,24.478234,118.312205
金門縣,金大綜合體育館,082-313802,金門縣金寧鄉盤山村大學路一號,24.44828,118.322445
金門縣,安美村辦暨活動中心,082-325752,金門縣金寧鄉安美村安岐60-9號,24.46195,118.32393
金門縣,榜林村辦公處,082-325459,金門縣金寧鄉榜林村榜林21號,24.435178,118.331453
金門縣,后盤村活動中心,082-311867,金門縣金寧鄉后盤村后盤山33號,24.450336,118.353541
金門縣,湖埔村辦公處,082-325667,金門縣金寧鄉湖埔村湖下155號,24.45662,118.307488
金門縣,金寧鄉公所地下室,082-325610,金門縣金寧鄉榜林村仁愛新村1號,24.426382,118.350832
金門縣,湖峰社區活動中心,082-327488,金門縣金寧鄉湖埔村湖下1-6號,24.455324,118.305943
金門縣,昔果山社區活動中心,082-324012,金門縣金寧鄉榜林村昔果山58-1號,24.428338,118.350657
金門縣,榜林社區活動中心,082-372477,金門縣金寧鄉榜林村榜林197號,24.436091,118.332448
金門縣,后盤村辦公處,082-311867,金門縣金寧鄉金門縣金寧鄉后盤村后盤山69號,24.443413,118.338335
金門縣,后湖社區活動中心,082-325610,金門縣金寧鄉榜林村后湖20之3號,24.417635,118.341318
金門縣,金寧國民中小學,082-329313,金門縣金寧鄉安美村安岐1號,24.456717,118.326839
金門縣,古寧國民小學,082-325750,金門縣金寧鄉古寧村北山1號,24.477889,118.312809
金門縣,金鼎國民小學,082-325700,金門縣金寧鄉盤山村下堡123號,24.447709,118.337847
金門縣,湖埔國民小學,082-326424,金門縣金寧鄉湖埔村湖下196號,24.457083,118.308212
金門縣,西浦頭社區活動中心,082-325610,金門縣金寧鄉安美村西浦頭231號,24.464644,118.320055
金門縣,上岐村辦公處,082-364503,金門縣烈嶼鄉上岐村青岐90號,24.415489,118.225498
金門縣,上林村辦公處,082-362401,金門縣烈嶼鄉上林村上林78號,24.427924,118.232212
金門縣,金門縣烈嶼鄉體育館,082-364675,金門縣烈嶼鄉林湖村后井40號,24.42746,118.257402
金門縣,黃埔村辦公處,082-363761,金門縣烈嶼鄉黃埔村黃厝45號,24.446732,118.251842
金門縣,林湖村辦公處,082-360401,金門縣烈嶼鄉林湖村東林24號,24.428965,118.249516
金門縣,西口村辦公處,082-364750,金門縣烈嶼鄉西口村西方76號,24.436121,118.236608
金門縣,小坵村活動中心,0910551761,金門縣烏坵鄉小坵村16號媽祖廟旁,24.98,119.47
金門縣,大坵村避難所,0826-66039,金門縣烏坵鄉大坵村烏坵鄉公所旁,24.988739,119.453178
金門縣,金門縣立體育館,082-372361,金門縣金城鎮南門里民族路261號,24.430116,118.314515
金門縣,金城鎮公所,082-325058#502,金門縣金城鎮東門里民生路2號,24.432518,118.320224
金門縣,前水頭社區活動中心,082-325058,金門縣金城鎮金水里前水頭150-1號,24.41264,118.295341
金門縣,和平社區活動中心,082-373516,金門縣金城鎮珠沙里和平新村130號,24.414894,118.328457
金門縣,金門城社區活動中心,082-325058,金門縣金城鎮古城里金門城85-1號,24.402009,118.305763
金門縣,賢庵里辦公處,082-323214,金門縣金城鎮賢庵里賢聚25號,24.417857,118.309881
金門縣,官裡社區活動中心,082-325058,金門縣金城鎮賢庵里官裡1-1號,24.411647,118.317867
金門縣,賢聚社區活動中心,082-325058,金門縣金城鎮賢庵里賢聚10號,24.416683,118.310334
金門縣,吳厝社區活動中心,082-325058,金門縣金城鎮吳厝18-1號,24.420031,118.317468
金門縣,泗湖社區活動中心,082-325058,金門縣金城鎮39-5號,24.412779,118.336345
金門縣,珠山社區活動中心,082-325058,金門縣金城鎮珠山83-1號,24.402794,118.320927
金門縣,小西門社區活動中心,082-325058,金門縣金城鎮珠沙里小西門22-1號,24.412986,118.327486
金門縣,庵前社區活動中心,082-325058,金門縣金城鎮賢庵里庵前40-8號,24.420235,118.322
金門縣,東沙社區活動中心,082-325058,金門縣金城鎮珠沙里東沙20號,24.405181,118.3251
金門縣,向陽吉第社區活動中心,082-325058,金門縣金城鎮西海路3段86號,24.419612,118.310632
金門縣,後豐港社區活動中心,082-325058,金門縣金城鎮金水里後豐港33-3,24.419776,118.301748
金門縣,燕南山社區活動中心,082-325058,金門縣金城鎮賢庵里古區28號,24.410007,118.312841
連江縣,馬祖高中禮堂,0836-25668,連江縣南竿鄉介壽村374號,26.154322,119.949788
連江縣,介壽村老人活動中心,0836-25022,連江縣南竿鄉介壽村156號,26.15538,119.952173
連江縣,介壽國中小,0836-22192,連江縣南竿鄉介壽村13號,26.160321,119.949813
連江縣,行政旅運大樓,0836-22948,連江縣南竿鄉福沃村185-6號,26.152525,119.942359
連江縣,仁愛國小禮堂,0836-22146,連江縣南竿鄉仁愛村95號,26.141178,119.92581
連江縣,中正國中小禮堂,0836-22196,連江縣南竿鄉馬祖村4號,26.159358,119.920092
連江縣,馬祖綜合福利園區,0836-22033,連江縣南竿鄉清水村131號,26.154011,119.938374
連江縣,連江縣縣民樂活多功能體育館,0836-22135#22,連江縣南竿鄉介壽村353-5號,26.1547,119.951088
連江縣,塘岐國小,0937770312,連江縣北竿鄉塘岐村55號,26.223545,119.997023
連江縣,民政課會議室,0836-55218,連江縣北竿鄉塘岐村260-1號,26.225355,119.997451
連江縣,楊公八使廟,0836-56690,連江縣北竿鄉后沃村22號,26.223711,120.007001
連江縣,中山國中禮堂,0836-55078#501,連江縣北竿鄉芹壁村84號,26.224022,119.980487
連江縣,三合殿,0836-56690,連江縣北竿鄉橋仔村100號,26.234607,119.993382
連江縣,綜合運動場館,0836-56690,連江縣北竿鄉塘岐村289-4號,26.227321,119.997318
連江縣,中山國中活動中心,0836-55078#501,連江縣北竿鄉芹壁村84號,26.224022,119.980487
連江縣,坂里老人活動中心,0919280489,連江縣北竿鄉坂里村31號,26.216851,119.974082
連江縣,后沃老人活動中心,0836-56690,連江縣北竿鄉后沃村58號,26.223649,120.006429
連江縣,國立臺灣海洋大學馬祖校區(禮堂),0836-55679,連江縣北竿鄉坂里村59號,26.215342,119.974369
連江縣,橋仔老人活動中心,0836-56690,連江縣北竿鄉橋仔村橋仔村109-1號,26.234859,119.993399
連江縣,白沙平水尊王廟,0836-56690,連江縣北竿鄉白沙村41號,26.206634,119.969112
連江縣,白沙老人活動中心,0836-56690,連江縣北竿鄉白沙村41-1號,26.206531,119.969112
連江縣,東莒國小綜合教室,0836-89034,連江縣莒光鄉大坪村4號,25.960093,119.973665
連江縣,田沃老人活動中心,0836-89146,連江縣莒光鄉田沃村52號,25.976329,119.94069
連江縣,莒指部國軍文康中心,0916512973,連江縣莒光鄉西坵村莒光指揮部國軍文康中心,25.974744,119.930574
連江縣,敬恆國中小禮堂,0836-88179,連江縣莒光鄉青帆村18號,25.970343,119.934652
連江縣,莒光遊客中心,0836-89388,連江縣莒光鄉福正村1號,25.965129,119.981095
連江縣,東莒老人活動中心,0933077104,連江縣莒光鄉大坪村57-1號,25.959468,119.973072
連江縣,青帆活動中心,0836-89146#21,連江縣莒光鄉青帆村18-1號,25.969635,119.93376
連江縣,東引鄉體育館,0933768131,連江縣東引鄉中柳村95號,26.368364,120.487894
連江縣,東引國中小,0836-77210,連江縣東引鄉中柳村94號,26.367919,120.488451
連江縣,東引活動中心,0933768131,連江縣東引鄉樂華村72-1號,26.366913,120.487955
彰化縣,明禮國小藝能館,04-8742344#13,彰化縣田中鎮三光里民光路一段394號,23.875212,120.566551
彰化縣,內安國小,04-8742252#103,"彰化縣田中鎮新庄里中南路三段 54 號",23.853687,120.599733
彰化縣,景崧文化教育園區-龍江館,04-8746062,彰化縣田中鎮梅州里中州路一段416號,23.857892,120.581199
彰化縣,大安國小,04-8742327#12,彰化縣田中鎮三安里大安路1段200號,23.84064,120.594421
彰化縣,東和國小,04-8742708,彰化縣田中鎮復興里山腳路四段188巷109號,23.867481,120.606235
彰化縣,田中鎮立圖書館,04-8742138,彰化縣田中鎮中路里中新路229號,23.857199,120.590194
彰化縣,龍潭社區活動中心,04-8756266,彰化縣田中鎮龍潭里大社路1段216巷100弄20號,23.867647,120.580808
彰化縣,昭天宮,04-8744798,彰化縣田中鎮大崙里大安路2段臨312號,23.83192,120.59486
彰化縣,三潭國小活動中心,04-8742254#13,彰化縣田中鎮北路里中正路715號,23.8653,120.585127
彰化縣,新庄社區活動中心,04-8756317,彰化縣田中鎮新庄里中山街134號,23.856235,120.593742
彰化縣,田中國小活動中心,04-8742013#716,彰化縣田中鎮南路里中州路一段177號,23.857327,120.587504
彰化縣,舊街社區活動中心,0933527566,彰化縣田中鎮沙崙里沙崙路281號,23.851116,120.583097
彰化縣,三光社區活動中心,04-8750532,彰化縣田中鎮三光里民光路1段392巷25號,23.875934,120.566971
彰化縣,新民國小,04-8756166#131,彰化縣田中鎮新民里公館路320號,23.854282,120.58574
彰化縣,田中鎮民活動中心,04-8761122#265,彰化縣田中鎮西路里斗中路一段198號,23.861514,120.580946
彰化縣,加錫及貢旗聯合集會所,04-8529583,彰化縣大村鄉加錫村加錫二巷3之8號,23.985378,120.525623
彰化縣,大西國小,04-8522677,彰化縣大村鄉大崙村大崙路10號之55號,23.984697,120.52538
彰化縣,村上國小,04-8533680#103,彰化縣大村鄉村上村中山路2段242號,23.988947,120.564763
彰化縣,村東國小,04-8526328#515,彰化縣大村鄉福興村山腳路102號之1,23.993551,120.585559
彰化縣,大葉大學,04-8511888#1130,彰化縣大村鄉福興村學府路168號,24.001239,120.596309
彰化縣,大村鄉公所,048-520149#131,彰化縣大村鄉大村村中正西路338號,23.99348,120.547192
彰化縣,大村國中,04-8521231#210,彰化縣大村鄉村上村中山路2段240號,23.988171,120.565504
彰化縣,大村國小,04-8522794#120,彰化縣大村鄉大村村中正西路381號,23.993722,120.545413
彰化縣,大崙及新興聯合集會所,04-8529583,彰化縣大村鄉大崙村大崙二巷28之2號,23.989142,120.514656
彰化縣,茄苳社區活動中心,04-8529583,彰化縣大村鄉茄苳村茄苳路二段141巷31號,24.008638,120.538887
彰化縣,美港社區活動中心,04-8529583,彰化縣大村鄉美港村中山路一段118號,23.977739,120.572303
彰化縣,大橋社區活動中心,04-8529583,彰化縣大村鄉大橋村中山路三段193巷69號,23.999631,120.555699
彰化縣,擺塘社區活動中心,04-8529583,彰化縣大村鄉擺塘村擺塘橫巷1-1號,23.985299,120.559718
彰化縣,大村村社區活動中心,04-8529583,彰化縣大村鄉大村村茄苳路一段203號,23.998141,120.544287
彰化縣,貢旗社區活動中心,04-8529583,彰化縣大村鄉貢旗村大崙路2-1號,23.988316,120.538747
彰化縣,田洋社區活動中心,04-8529583,彰化縣大村鄉田洋村田洋巷11號,23.996389,120.533225
彰化縣,新興社區活動中心,04-8529583,彰化縣大村鄉新興村新興巷6-3號,23.974003,120.5366
彰化縣,村上社區活動中心,04-8529583,彰化縣大村鄉村上村中正東路98巷2號,23.988848,120.566688
彰化縣,過溝社區活動中心,04-8529583,彰化縣大村鄉過溝村過溝三巷36-2號,23.992857,120.55396
彰化縣,過溝集會所,04-8529583,彰化縣大村鄉過溝村過溝村鎮安二巷5號,23.99191,120.558124
彰化縣,埔鹽鄉公所,04-8652301,彰化縣埔鹽鄉好修村彰化縣埔鹽鄉好修村中正路192號,24.000501,120.463663
彰化縣,老人文康中心,04-8652301-142,彰化縣埔鹽鄉埔南村彰化縣埔鹽鄉埔南村6鄰彰水路1段340巷32號,23.994617,120.478254
彰化縣,埔鹽國小,04-8852882,彰化縣埔鹽鄉埔南村彰化縣埔鹽鄉埔南村彰水路一段252號,23.992812,120.477896
彰化縣,埔鹽鄉立幼兒園,04-8658724,彰化縣埔鹽鄉新水村彰化縣埔鹽鄉新水村6鄰大新路一巷12之8號,23.985849,120.442333
彰化縣,南港國小,04-8850169,彰化縣埔鹽鄉南港村彰化縣埔鹽鄉南港村埔菜路29之2號,23.987977,120.495773
彰化縣,好修國小,04-8653555,彰化縣埔鹽鄉好修村彰化縣埔鹽鄉好修村員鹿路二段149號,24.007211,120.459559
彰化縣,新水國小,04-8651112,彰化縣埔鹽鄉新水村彰化縣埔鹽鄉新水村大新路15號,23.985787,120.445263
彰化縣,永樂福利園區,04-8652301-141,彰化縣埔鹽鄉永樂村彰化縣埔鹽鄉永樂村永樂路435號,24.000135,120.434094
彰化縣,永樂國小,04-8652263,彰化縣埔鹽鄉永樂村彰化縣埔鹽鄉永樂村永樂路600號,24.000544,120.431276
彰化縣,天盛國小,04-8650842,彰化縣埔鹽鄉天盛村彰化縣埔鹽鄉天盛村番金路68之1號,23.984991,120.428786
彰化縣,大園國小,04-8853760,彰化縣埔鹽鄉豐澤村彰化縣埔鹽鄉豐澤村埔打路45之1號,23.979785,120.488249
彰化縣,老人文康中心,04-7772006-1609,彰化縣鹿港鎮順興里忠孝路403號,24.058228,120.433873
彰化縣,草中社區活動中心,0939091389,彰化縣鹿港鎮草中里草中巷2-16號,24.10413,120.462598
彰化縣,鹿港鎮公所,04-7772006#1716,彰化縣鹿港鎮景福里民權路168號,24.057269,120.435052
彰化縣,景福社區活動中心,04-7775494,彰化縣鹿港鎮景福里萬壽路244號,24.057079,120.436319
彰化縣,街尾里活動中心,0976409839,彰化縣鹿港鎮街尾里力行街45號,24.048287,120.435824
彰化縣,洛津國小,04-7772041,彰化縣鹿港鎮洛津里公園三路51號,24.054531,120.430642
彰化縣,海埔里民集會所,04-7751662,彰化縣鹿港鎮海埔里鹿草路二段197號,24.071263,120.439234
彰化縣,文開國小,04-7772042,彰化縣鹿港鎮新宮里文開路60號,24.057192,120.430235
彰化縣,新興國小,04-7785911,彰化縣鹿港鎮詔安里某旦巷85號,24.072564,120.457055
彰化縣,東崎社區活動中心,0937746009,彰化縣鹿港鎮東崎里東崎七巷1號,24.056106,120.474975
彰化縣,溝墘社區活動中心,04-7775582,彰化縣鹿港鎮溝墘里棋盤巷32之2號旁,24.064281,120.475461
彰化縣,鹿東國小,04-7756521,彰化縣鹿港鎮頂厝里長安路125號,24.058343,120.443305
彰化縣,鹿港鎮停一立體停車場,04-7772006#2607,彰化縣鹿港鎮大有里公園一路2號,24.053429,120.432761
彰化縣,龍山寺,04-7772472,彰化縣鹿港鎮龍山里金門巷81號,24.050267,120.435674
彰化縣,頭崙里集會所,04-7711517,彰化縣鹿港鎮頭崙里頂草路二段150號,24.091569,120.476972
彰化縣,菜園社區活動中心,0912629649,彰化縣鹿港鎮菜園里復興南路422巷18號,24.050667,120.43252
彰化縣,頂番國小,04-7711433,彰化縣鹿港鎮頂番里頂草路一段100號,24.087949,120.480191
彰化縣,洋厝社區活動中心,0931634629,彰化縣鹿港鎮洋厝里洋厝巷42-3號,24.099508,120.451933
彰化縣,山崙里活動中心,0972062529,彰化縣鹿港鎮山崙里崙尾巷26-9號,24.111856,120.44829
彰化縣,國立鹿港高級中學,04-7772403,彰化縣鹿港鎮東石里中山路661號,24.060739,120.424879
彰化縣,福興鄉公所,04-7772066#2502,彰化縣福興鄉橋頭村彰鹿路7段495號,24.047951,120.443849
彰化縣,鄉立幼兒園-主園,04-7766212,彰化縣福興鄉福興村福興路51巷12號,24.045071,120.427214
彰化縣,福興國中,04-7772009*1500,彰化縣福興鄉西勢村員鹿路2段270號,24.040965,120.436684
彰化縣,鄉立幼兒園-東區分班,04-7792045,彰化縣福興鄉外埔村復興路15之15號,24.028807,120.473997
彰化縣,三和社區活動中心,04-7701177,彰化縣福興鄉三和村南興街78號,24.008517,120.410991
彰化縣,三汴社區活動中心,04-7694162,彰化縣福興鄉三汴村彰水路346巷47號,24.018329,120.487934
彰化縣,管嶼國小,04-7702949#13,彰化縣福興鄉廈粘村沿海路3段100號,24.028129,120.412814
彰化縣,永豐國小,04-7792748*13,彰化縣福興鄉番社村80號,24.02757,120.455122
彰化縣,秀水鄉農會,04-7691321,彰化縣秀水鄉安東村中山路328號,24.035008,120.501464
彰化縣,馬興國小,04-7526247,彰化縣秀水鄉馬興村培英巷1號,24.062156,120.496979
彰化縣,秀水高工,04-697020,彰化縣秀水鄉福安村中山路364號,24.034413,120.499242
彰化縣,秀水國小,04-7692756,彰化縣秀水鄉安東村中山路257號,24.034866,120.502657
彰化縣,育民國小,04-7694845-813,彰化縣秀水鄉下崙村民生街262號,24.004344,120.505593
彰化縣,秀水鄉立體育館,04-7687418,彰化縣秀水鄉安東村瓦瑤街17號,24.040692,120.503613
彰化縣,陜西國小,04-7692242,彰化縣秀水鄉金興村番花路261號,24.012014,120.517463
彰化縣,華龍國小,04-7692713,彰化縣秀水鄉秀水村花秀路51號,24.038049,120.514168
彰化縣,明正國小,04-7258908,彰化縣秀水鄉埔崙村彰水路二段341號,24.026724,120.492732
彰化縣,秀水鄉老人文康中心,04-7697024-303,彰化縣秀水鄉莊雅村中山路99號,24.038325,120.507329
彰化縣,秀水社區活動中心,04-7694735,彰化縣秀水鄉秀水村花秀路46號對面,24.03843,120.515378
彰化縣,陝西社區活動中心,04-7694737,彰化縣秀水鄉陝西村埔南巷92號,24.009505,120.517829
彰化縣,金陵村村里集會所活動中心,04-7685467,彰化縣秀水鄉金陵村竹圍巷3號,24.00774,120.506409
彰化縣,玉陵宮廣場,04-7685467,彰化縣秀水鄉金陵村番花路450巷46號,24.014918,120.505711
彰化縣,莊雅社區活動中心,04-7694740,彰化縣秀水鄉莊雅村秀中街82巷67弄臨15號,24.031735,120.507364
彰化縣,埔崙社區活動中心,04-7692735,彰化縣秀水鄉埔崙村蘇周巷162號,24.021871,120.495277
彰化縣,安溪社區活動中心,04-7638056,彰化縣秀水鄉安溪村安溪街98號,24.044938,120.509934
彰化縣,福安社區活動中心清龍巖,04-7689186,彰化縣秀水鄉福安村民意街64號,24.02991,120.494778
彰化縣,鶴鳴社區活動中心,04-7694741,彰化縣秀水鄉鶴鳴村明山街41號,24.05468,120.502444
彰化縣,下崙社區活動中心,04-7696219,彰化縣秀水鄉下崙村民生街206號天慈宮,24.001747,120.50618
彰化縣,安東社區活動中心,04-7694739,彰化縣秀水鄉安東村枋林巷60號,24.039283,120.501245
彰化縣,曾厝社區活動中心,04-7694406,彰化縣秀水鄉曾厝村大厝巷66號,24.020612,120.509303
彰化縣,馬興社區活動中心,04-7526742,彰化縣秀水鄉馬興村西銘巷6-1號,24.062733,120.495684
彰化縣,義興村聖靈宮,04-7614027,"彰化縣秀水鄉義興村義雅巷臨 5 號",24.066718,120.492166
彰化縣,馬興村村里集會所活動中心,04-7526742,彰化縣秀水鄉馬興村雅興街260巷8-1號,24.075164,120.498876
彰化縣,三春國小,7862154,彰化縣花壇鄉三春村三芬路47號,24.017046,120.566068
彰化縣,花壇鄉立老人文康中心,04-7865921,彰化縣花壇鄉永春村長青路25號,24.017125,120.571096
彰化縣,花壇鄉公所,04-7865921,彰化縣花壇鄉南口村中山路二段182號,24.029878,120.538332
彰化縣,花壇村活動中心,04-7865921,彰化縣花壇鄉花壇村平和街76號,24.023817,120.540138
彰化縣,華南國小,04-7863225#703,彰化縣花壇鄉中庄村中橋街226號,24.01596,120.551405
彰化縣,僑愛國小,04-7863227,彰化縣花壇鄉中口村中山路2段471號,24.038577,120.534726
彰化縣,花壇國小,7862029,彰化縣花壇鄉長沙村學前路108號,24.026315,120.543208
彰化縣,文德宮香客大樓,04-7863904,彰化縣花壇鄉白沙村彰員路3段2號,24.04305,120.547222
彰化縣,文祥國小,04-7862255,彰化縣花壇鄉劉厝村明雅街131號,24.025542,120.526235
彰化縣,灣雅活動中心含楓灣宮廣場,04-7868686,彰化縣花壇鄉灣雅村楓脚巷128號,24.01707,120.562995
彰化縣,橋頭社區活動中心,04-7869640,彰化縣花壇鄉橋頭村花橋街117-1號,24.022846,120.550178
彰化縣,白沙國小,04-7863224#51,彰化縣花壇鄉白沙村村彰員路3段225號,24.047756,120.545078
彰化縣,花壇國中,04-7862043#51,彰化縣花壇鄉長沙村彰員路2段580號,,
彰化縣,長春社區活動中心,0937-739988,彰化縣花壇鄉長春村彰員路1段172巷45號,24.01029,120.576082
彰化縣,湖內社區活動中心,04-7561716,彰化縣和美鎮湖內里湖竹路5號,24.150282,120.509283
彰化縣,源埤社區活動中心,04-7614953,彰化縣和美鎮源埤里南安路105號,24.085315,120.510692
彰化縣,和美鎮公所,04-7560620-110,彰化縣和美鎮仁愛里鹿和路6段337號,24.108478,120.494266
彰化縣,大嘉國小,7552524,彰化縣和美鎮嘉犁里彰和路3段50號,24.095945,120.512219
彰化縣,面前社區活動中心,7552759,彰化縣和美鎮面前里雅安路265號,24.099257,120.483075
彰化縣,和東國小,047-552724,彰化縣和美鎮和東里彰美路5段210號,24.109255,120.501453
彰化縣,和美高中,04-7552043-255,彰化縣和美鎮和西里西園路31號,24.113009,120.493557
彰化縣,大霞社區活動中心,7557503,彰化縣和美鎮大霞里彰和路三段422號,24.101702,120.503687
彰化縣,新庄社區活動中心,04-7550003,彰化縣和美鎮新庄里東發路100巷36-1號,24.097055,120.533615
彰化縣,和群國中,7350071轉*140,彰化縣和美鎮柑井里美寮路一段390號,24.111716,120.519718
彰化縣,南佃社區活動中心,7638015,彰化縣和美鎮南佃里嘉佃路145號,24.085097,120.50026
彰化縣,四張社區活動中心,0930862511,彰化縣和美鎮四張里鎮西路74號,24.115123,120.485114
彰化縣,詔安社區活動中心,7355293,彰化縣和美鎮詔安里彰和路二段172號,24.090751,120.529805
彰化縣,新庄國小,7353267轉103,彰化縣和美鎮犁盛里彰新路2段500號,24.104087,120.533231
彰化縣,塗厝社區活動中心,04-7565335,彰化縣和美鎮塗厝里和厝路2段485號,24.136578,120.508418
彰化縣,月眉社區活動中心,7575745,彰化縣和美鎮月眉里和厝路一段276號,24.122364,120.495561
彰化縣,嘉犁社區活動中心,0927767339,彰化縣和美鎮嘉犁里東坡路臨22號,24.092217,120.516858
彰化縣,培英國小,7552430轉104,彰化縣和美鎮塗厝里彰新路5段310號,24.134816,120.511306
彰化縣,雅溝社區活動中心,7552354,彰化縣和美鎮雅溝里南軒路359巷8號,24.099423,120.491501
彰化縣,中圍社區活動中心,04-7351933,彰化縣和美鎮中圍里竹社路125號,24.112891,120.532873
彰化縣,和仁國小,7575407轉713,彰化縣和美鎮山犁里仁愛路279號,24.104386,120.494662
彰化縣,竹園社區活動中心,04-7351292,彰化縣和美鎮竹園里彰新路4段115號,24.119686,120.524989
彰化縣,好修社區活動中心,04-7558259,彰化縣和美鎮好修里月北路400巷21號,24.13166,120.497519
彰化縣,鎮平社區活動中心,04-7526231,彰化縣和美鎮鎮平里南平路11號,24.082075,120.509086
彰化縣,犁盛社區活動中心,7352850,彰化縣和美鎮犁盛里東平路225巷9號,24.103321,120.527978
彰化縣,大榮國小,"7636814轉 15",彰化縣和美鎮南佃里嘉佃路296號,24.087592,120.500901
彰化縣,和美國小,7552005-19,彰化縣和美鎮和西里和平街19號,24.111802,120.495711
彰化縣,地潭社區活動中心,7556126,彰化縣和美鎮地潭里晉北路臨456號,24.147133,120.51518
彰化縣,中寮社區活動中心,04-7355328,彰化縣和美鎮中寮里東興路21號,24.113779,120.539396
彰化縣,嘉寶社區活動中心,04-7560620,彰化縣和美鎮嘉寶里福北路219號1樓,24.126662,120.512808
彰化縣,龍華慈惠堂,04-7556780,彰化縣和美鎮四張里西美路115號,24.120764,120.489696
彰化縣,線西國中,04-7584129#11,彰化縣線西鄉寓埔村中央路二段145號,24.13211,120.468926
彰化縣,曉陽國小,04-7585370,彰化縣線西鄉頂犁村頂犁路158-1號,24.122698,120.478021
彰化縣,線西國小,04-7585075,彰化縣線西鄉寓埔村中央路二段135號,24.13127,120.469708
彰化縣,新港國民國小,04-7982310,彰化縣伸港鄉新港村和平路60號,24.149003,120.484819
彰化縣,大同國民國小,04-7982307,彰化縣伸港鄉大同村彰新路7段724號,24.15998,120.491908
彰化縣,伸東國民小學,04-7982314,彰化縣伸港鄉七嘉村中華路565號,24.146004,120.495681
彰化縣,伸港鄉老人文康活動中心,04-7982010-205,彰化縣伸港鄉新港村忠孝東街50號,24.148637,120.487765
彰化縣,伸仁國民小學,04-7982324,彰化縣伸港鄉曾家村曾家路3之15號,24.147314,120.476436
彰化縣,海尾社區活動中心,04-7981492,彰化縣伸港鄉海尾村海尾路3-2號,24.165061,120.487268
彰化縣,蚵寮社區活動中心,04-0000000,彰化縣伸港鄉蚵寮村蚵寮路132-5號,24.148969,120.459457
彰化縣,文德宮,04-0000000,彰化縣伸港鄉七嘉村嘉二路47號,24.148295,120.494607
彰化縣,大同社區活動中心,04-0000000,彰化縣伸港鄉大同村大同路82號,24.159694,120.489977
彰化縣,什股社區活動中心,04-7995235,彰化縣伸港鄉什股村什股路100-1號,24.156575,120.478257
彰化縣,全興社區活動中心,04-7985889,彰化縣伸港鄉全興村東全路11號,24.176327,120.49073
彰化縣,伸港國中第二校區,04-7988611#30,彰化縣伸港鄉埤墘村建興路168號,24.144729,120.491978
彰化縣,泉州社區活動中心,04-7982087,彰化縣伸港鄉泉州村仁愛路123號,24.148081,120.482617
彰化縣,泉厝社區活動中心,04-7992162,彰化縣伸港鄉泉厝村泉厝路44-3號,24.149439,120.481432
彰化縣,曾家社區活動中心,04-7991099,彰化縣伸港鄉曾家村曾家路65-1號,24.145379,120.473083
彰化縣,定興社區活動中心,04-0000000,彰化縣伸港鄉定興村定興路63-2號,24.156897,120.499111
彰化縣,新港社區活動中心,04-0000000,彰化縣伸港鄉新港村自強路臨30號,24.143899,120.486868
彰化縣,溪底社區活動中心,04-7986104,彰化縣伸港鄉溪底村溪底路103-2號,24.156758,120.502497
彰化縣,汴頭社區活動中心,04-0000000,彰化縣伸港鄉汴頭村汴頭路187-3號,24.143436,120.497823
彰化縣,員林市僑信國小,04-8320810,彰化縣員林市三信里中山路二段280號,23.967029,120.571613
彰化縣,員林市育英國小,04-8320130#713,彰化縣員林市黎明里光明街31號,23.952572,120.574194
彰化縣,員林市西區體育館,8397375,彰化縣員林市新生里雙景街50號,23.958697,120.564228
彰化縣,員林市東山國小,04-8310749#805,彰化縣員林市南東里山腳路四段212號,23.967939,120.601305
彰化縣,靜修國小群英館,04-8320341#801,彰化縣員林市南平里靜修路74號,23.962529,120.565529
彰化縣,員林市公所三樓禮堂,04-8347171#662,彰化縣員林市中正里三民街18號,23.959074,120.574331
彰化縣,員林市員東國小,04-8311022#804,彰化縣員林市浮圳里員東路二段12號,23.96191,120.587327
彰化縣,員林高中活動中心,04-8320364,彰化縣員林市南興里靜修路79號,24.778289,120.988108
彰化縣,東北社區活動中心,04-8347171,彰化縣員林市東北里山腳路三段2巷150號,23.979074,120.592275
彰化縣,大明社區活動中心,04-8347171,彰化縣員林市大明里員集路二段177巷65號,23.939741,120.576348
彰化縣,員林國中勤學地下室,04-8320873#130,彰化縣員林市南興里南潭路2號,23.962928,120.560253
彰化縣,大同國中,04-8358382#600,彰化縣員林市三和里大同路一段345號,23.963386,120.578974
彰化縣,源潭社區活動中心,04-8347171,彰化縣員林市源潭里三潭巷27號,23.965896,120.549834
彰化縣,中央社區活動中心,04-8347171,彰化縣員林市南平里新生路354號,23.963927,120.568844
彰化縣,鎮興社區活動中心,04-8347171,彰化縣員林市鎮興里員林市山腳路六段20號510,23.957616,120.602276
彰化縣,員林市員林國小,04-8320145#771,彰化縣員林市中正里三民東街221號,23.959531,120.57763
彰化縣,崇實高工體育館,04-8347106,彰化縣員林市新興里育英路103號,23.961161,120.575292
彰化縣,三義社區活動中心,04-8347171,彰化縣員林市三義里員鹿路245巷112號,23.952576,120.563931
彰化縣,出水社區活動中心,04-8347171,彰化縣員林市浮圳里浮圳巷8號之15,23.963989,120.593414
彰化縣,員林農工體育館,04-360105,彰化縣員林市萬年里員水路二段313號,23.954661,120.581827
彰化縣,中東社區活動中心,04-8347171,彰化縣員林市中東里山腳路五段184巷86號,23.973386,120.600603
彰化縣,老人文康活動中心,04-7222141,彰化縣彰化市陽明里三民路436號,24.086545,120.549124
彰化縣,彰化生活藝文館,04-7222141-2004,彰化縣彰化市光復里民生路259號,24.081285,120.54225
彰化縣,南興社區活動中心,04-7222141,彰化縣彰化市南興里中山路一段189巷49號,24.057587,120.532718
彰化縣,延和社區活動中心,04-7222141,彰化縣彰化市延和里埔西街111號,24.059626,120.539691
彰化縣,南北管戲曲音樂館,04-7250057#1601,彰化縣彰化市崙平里平和七街66號,24.068321,120.530648
彰化縣,三民國小,7384775,彰化縣彰化市田中里田中路125號,24.08649,120.604311
彰化縣,大快官藝文館,04-7222141,彰化縣彰化市快官里彰南路五段8號,24.068583,120.613187
彰化縣,泰和國小,04-7222433#15,彰化縣彰化市阿夷里泰和路二段145巷1號,24.092991,120.551711
彰化縣,牛埔社區活動中心,04-7222141,彰化縣彰化市牛埔里彰南路三段226號,24.081976,120.597691
彰化縣,快官社區活動中心,04-7222141,彰化縣彰化市快官里彰南路四段566號之1,24.068923,120.612662
彰化縣,忠孝國小,04-7523944-13,彰化縣彰化市西勢里忠誠路61號,24.084239,120.532196
彰化縣,石牌國小(活動中心),04-7381672-102,彰化縣彰化市石牌里田坑路一段9號,24.058413,120.614358
彰化縣,彰德國中,04-7381791#131,彰化縣彰化市香山里彰南路二段512巷97號,24.080359,120.589534
彰化縣,彰興國中,04-7110743#501,彰化縣彰化市延和里埔西街107號,24.059505,120.538213
彰化縣,東芳國小,04-7523250#710,彰化縣彰化市東芳里彰馬路45號,24.062457,120.516112
彰化縣,信義國中小,04-7635888#143,彰化縣彰化市向陽里向陽街168號,24.062891,120.528452
彰化縣,桃源社區活動中心,04-7222141,彰化縣彰化市桃源里公園路二段102之1號,24.072526,120.559011
彰化縣,介壽社區活動中心,04-7222141,彰化縣彰化市介壽里介壽新村21號,24.069531,120.552617
彰化縣,國聖國小,04-7321093#103,彰化縣彰化市國聖里中山路三段608號,24.092092,120.56853
彰化縣,福山社區活動中心,04-7222141,彰化縣彰化市福山里福山街168號,24.082415,120.57003
彰化縣,茄苳社區活動中心,04-7222141,彰化縣彰化市茄苳里茄苳路二段292號,24.10376,120.548253
彰化縣,陽明國中,04-7222263#500,彰化縣彰化市陽明里長順街76號,24.086151,120.550462
彰化縣,彰安國中,04-7236117#230,彰化縣彰化市彰安里中正路二段530號,24.070665,120.535264
彰化縣,正德高中,04-7524109#212,彰化縣彰化市莿桐里彰水路145號,24.058738,120.518508
彰化縣,快官國小,04-7384814,彰化縣彰化市快官里彰南路4段566號,24.068545,120.612007
彰化縣,建國科技大學,04-7111111#1515,彰化縣彰化市建寶里介壽北路1號,24.066306,120.550056
彰化縣,大成國小,04-7353457#103,彰化縣彰化市下廍里自強路303號,24.091362,120.5471
彰化縣,大竹國小,04-7381436#213,彰化縣彰化市大竹里彰南路二段164巷41號,24.08292,120.580408
彰化縣,民生國小,04-7224122#14,彰化縣彰化市民生里民生路338號,24.083819,120.543075
彰化縣,平和國小,04-7222355#12,彰化縣彰化市彰安里中正路二段450號,24.072469,120.535156
彰化縣,彰化女子高中,04-7240042#1401,彰化縣彰化市光復里光復路62號,24.081178,120.54348
彰化縣,聯興國小,04-7384340,彰化縣彰化市台鳳里一心南街208號,24.076384,120.598795
彰化縣,彰泰國中,04-7369676#302,彰化縣彰化市下廍里自強路357號,24.091619,120.54843
彰化縣,彰化藝術高中,04-7222844#401,彰化縣彰化市卦山里卦山路13號,24.078765,120.554489
彰化縣,南興國小,04-7622827,彰化縣彰化市南興里中山路一段213號,24.058115,120.534049
彰化縣,中山國小,04-7222033#13,彰化縣彰化市中山里中山路二段678號,24.081909,120.546638
彰化縣,師大附工,04-7252541#230,彰化縣彰化市和調里工校街1號,24.082588,120.555981
彰化縣,延和公園棒壘球場,04-7222141,彰化縣彰化市延和里埔西街212-246號,24.059972,120.540178
彰化縣,螺青國小,04-8882031,彰化縣北斗鎮東光里斗中路712號,23.871091,120.534599
彰化縣,中寮社區活動中心,04-8887363,彰化縣北斗鎮中寮里中央路30巷31號,23.881357,120.510239
彰化縣,中和社區活動中心,04-8884177,彰化縣北斗鎮中和里中圳路305號,23.866143,120.546215
彰化縣,北斗國小,04-8882008#13,彰化縣北斗鎮新政里文苑路一段32號,23.875748,120.523379
彰化縣,北斗鎮公所,04-8884166,彰化縣北斗鎮西德里公所街2號,23.871395,120.521856
彰化縣,北斗家商,04-8882224,彰化縣北斗鎮大道里學府路50號,23.878499,120.522079
彰化縣,萬來國小,04-8882119#15,彰化縣北斗鎮西德里文賢街35號,23.870287,120.522049
彰化縣,北斗國中,04-8882072#12,彰化縣北斗鎮大道里文苑路136號,23.875934,120.521586
彰化縣,大新國小,04-8882640,彰化縣北斗鎮大新里大新路556號,23.854949,120.557239
彰化縣,螺陽國小,04-8882039#104,彰化縣北斗鎮西安里斗苑路2段150號,23.876239,120.514719
彰化縣,原斗國民中小學,04-8904600,彰化縣二林鎮原斗里斗苑路一段865號,23.896283,120.427034
彰化縣,二林國小,04-8960057#701,彰化縣二林鎮豐田里斗苑路五段22號,23.89992,120.377267
彰化縣,二林鎮鎮立幼兒園,04-8952421,彰化縣二林鎮豐田里斗苑路四段586號,23.900455,120.375424
彰化縣,二林工商,04-8962132#301,彰化縣二林鎮豐田里斗苑路4段500號,23.89992,120.377267
彰化縣,中興國小,04-8683458,彰化縣二林鎮華崙里光復路73號,23.94819,120.442785
彰化縣,二林文化教育園區,04-8960145,彰化縣二林鎮西平里西和一街65號,23.897338,120.36207
彰化縣,東勢社區活動中心,04-8901538,彰化縣二林鎮東勢里面前巷2之20號,23.907181,120.436171
彰化縣,南光社區活動中心,04-8960343,彰化縣二林鎮南光里懷仁街8號,23.893958,120.36617
彰化縣,路上國小,04-8982014分機17,彰化縣芳苑鄉路上村新上路12號,23.896073,120.32831
彰化縣,王功國小,04-8932182#703,彰化縣芳苑鄉王功村功湖路王功段481號,23.965045,120.342089
彰化縣,漢寶社區活動中心,04-8991002,彰化縣芳苑鄉漢寶村成功一路45號,24.005789,120.368872
彰化縣,後寮國小,04-8983184#12,彰化縣芳苑鄉後寮村芳寮路30號,23.92085,120.341748
彰化縣,草湖國中,04-8857239#206,彰化縣芳苑鄉草湖村功湖路草湖段140號,23.9583,120.378361
彰化縣,新寶國小,04-8932885,彰化縣芳苑鄉新寶村芳漢路129巷100號,23.978273,120.345102
彰化縣,芳苑鄉立示範幼兒園,04-8965095,彰化縣芳苑鄉三合村工區一路45巷83弄17號,23.90782,120.347451
彰化縣,漢寶國小,"04-8991062 #12",彰化縣芳苑鄉漢寶村草漢路漢寶段541號,24.006965,120.384692
彰化縣,埔心鄉立幼兒園,04-8242191-203,彰化縣埔心鄉太平村太平路336號,23.938403,120.551378
彰化縣,羅厝國小,04-8292861-813,彰化縣埔心鄉羅厝村文昌東路100號,23.942067,120.513079
彰化縣,舊館國小,04-8292025#713,彰化縣埔心鄉舊舘村員鹿路4段201號,23.947679,120.525814
彰化縣,埔心國中埔心國中暨社區多功能活動中心,04-8291129-10,彰化縣埔心鄉義民村忠義北路57號,23.954646,120.541968
彰化縣,鳳霞國小,04-8294072,彰化縣埔心鄉二重村五通南路82號,23.970027,120.525724
彰化縣,梧鳳國小,8291964,彰化縣埔心鄉梧鳳村大溪路三段175號,23.970383,120.512377
彰化縣,埔心國小,8291494-104,彰化縣埔心鄉義民村員鹿路二段254號,23.953344,120.545323
彰化縣,明聖國小,04-8295395,彰化縣埔心鄉瓦北村西安南路178號,23.95118,120.557567
彰化縣,太平國小,8226049-102,彰化縣埔心鄉太平村太平路289號,23.937868,120.552955
彰化縣,埔心鄉公所,04-8296249#23,彰化縣埔心鄉義民村員鹿路二段344號,23.953064,120.54352
彰化縣,水尾國小,04-8892442,彰化縣溪州鄉水尾村太平路137號,23.831865,120.471631
彰化縣,圳寮國小,04-8802165,彰化縣溪州鄉圳寮村下樹巷29號,23.839075,120.522925
彰化縣,南州國小,04-8892224,彰化縣溪州鄉溪州村公園路95號,23.852996,120.490911
彰化縣,溪州國小,04-8895013,彰化縣溪州鄉尾厝村中山路3段415號,23.85258,120.497072
彰化縣,大莊國小,04-8802438,彰化縣溪州鄉大庄村中橫巷1號,23.816026,120.567505
彰化縣,僑義國小,04-8892244,彰化縣溪州鄉溪厝村中山路2段362號,23.845972,120.480126
彰化縣,潮洋國小,04-8803059,彰化縣溪州鄉潮洋村陸軍路1段146號,23.814253,120.519475
彰化縣,三條國小,04-8895080,彰化縣溪州鄉三條村中央路2段31號,23.826854,120.495154
彰化縣,成功國小西畔分校,04-8802179,彰化縣溪州鄉西畔村廣一巷24號,23.842884,120.539912
彰化縣,溪州國中,04-8895054#46,彰化縣溪州鄉溪州村中央路三段300號,23.850358,120.495082
彰化縣,成功國小,04-8802225,彰化縣溪州鄉成功村登山路2段365號,23.826089,120.544774
彰化縣,大城國中,04-8941021,彰化縣大城鄉東城村南平路224號,23.85294,120.324019
彰化縣,大城國小,8941135#104,彰化縣大城鄉大城村中平路176號,23.85302,120.32034
彰化縣,大城演藝廳,04-89429807,彰化縣大城鄉大城村中平路132號,23.853311,120.320695
彰化縣,西港國小,04-8941029#13,彰化縣大城鄉東港村東港村中央路2號,23.864632,120.291086
彰化縣,豐美社區活動中心,04-8942980,彰化縣大城鄉豐美村平和路5號,23.879059,120.309136
彰化縣,上山社區活動中心,04-8944043,彰化縣大城鄉上山村大山路2-1號,23.844884,120.338301
彰化縣,菜寮社區活動中心,04-8941269,彰化縣大城鄉菜寮村東平路6號,23.869028,120.314666
彰化縣,頂庄國小,04-8941029#13,彰化縣大城鄉頂庄村東厝路63-1號,23.848699,120.284758
彰化縣,永靖鄉立幼兒園,04-8238746,彰化縣永靖鄉港西村彰化縣永靖鄉永社路267號,23.915192,120.545804
彰化縣,老人文康活動中心,04-8221191*246,彰化縣永靖鄉港西村彰化縣永靖鄉永社路266號,23.915188,120.546384
彰化縣,崙子社區活動中心,04-8223801,彰化縣永靖鄉崙子村九分路192-1號,23.930527,120.566427
彰化縣,湳墘社區活動中心,04-8231321,彰化縣永靖鄉湳墘村忠心路13-1號,23.93539,120.528244
彰化縣,光雲社區活動中心,04-8221389,彰化縣永靖鄉光雲村意善巷78-1號,23.927423,120.55625
彰化縣,永靖國中,04-8221929#123,彰化縣永靖鄉瑚璉村錫壽路123號,23.930029,120.55118
彰化縣,竹子社區活動中心,04-8242522,彰化縣永靖鄉竹子村竹中巷41號,23.924282,120.504003
彰化縣,港西社區活動中心,0927627773,彰化縣永靖鄉港西村福德巷36-1號,23.913983,120.541357
彰化縣,新莊社區活動中心,04-8237777,彰化縣永靖鄉新莊村永社路75-1號,23.906797,120.553833
彰化縣,五汴社區活動中心,0932546879,彰化縣永靖鄉五汴村五汴巷1號,23.931315,120.560028
彰化縣,崙美社區活動中心,0925379229,彰化縣永靖鄉崙美村獨鰲路270巷8-1號,23.917223,120.517923
彰化縣,同安社區活動中心,04-8222025,彰化縣永靖鄉同安村西畔巷11-1號,23.925487,120.527666
彰化縣,永南社區活動中心,04-8221997,彰化縣永靖鄉永南村永西路155號,23.918572,120.542484
彰化縣,同仁社區活動中心,04-8247678,彰化縣永靖鄉同仁村東畔路7-1號,23.925588,120.531457
彰化縣,四芳集會所,04-8240568,彰化縣永靖鄉四芳村四湳路55-1號,23.92394,120.523994
彰化縣,福興社區活動中心,04-8222097,彰化縣永靖鄉福興村中肚巷52號,23.918716,120.513739
彰化縣,永靖高工活動中心,04-8221810#516,彰化縣永靖鄉永北村永坡路101號,23.926687,120.545505
彰化縣,敦厚獨鰲聯合集會所,04-8239795,彰化縣永靖鄉獨鰲村獨鰲路2段9號,23.919298,120.531503
彰化縣,五福社區活動中心,04-8225153,彰化縣永靖鄉五福村五福村五福巷99-1號,23.911083,120.540751
彰化縣,長安國小,04-8972694,彰化縣竹塘鄉長安村東陽路二段123號,23.847871,120.386916
彰化縣,老人文康中心,04-8970072,彰化縣竹塘鄉民靖村金山路40號,23.886612,120.41142
彰化縣,竹塘國小,04-8972039,彰化縣竹塘鄉竹塘村文化街20號,23.861272,120.428849
彰化縣,田頭國小,04-8972189,彰化縣竹塘鄉田頭村光明路60號,23.837088,120.449279
彰化縣,五庄社區活動中心,04-8974216,彰化縣竹塘鄉五庄村竹五路222號,23.873163,120.432062
彰化縣,土庫國小,04-8972140,彰化縣竹塘鄉土庫村東陽路362號,23.850017,120.409505
彰化縣,樹腳社區活動中心,04-8970618,彰化縣竹塘鄉樹腳村福田路6號,23.844405,120.447762
彰化縣,新廣社區活動中心,04-8972978,彰化縣竹塘鄉新廣村光明路廣福巷57號,23.846404,120.430043
彰化縣,竹林社區活動中心,04-8975082,彰化縣竹塘鄉竹林村竹鹿路保安巷45號,23.860372,120.402953
彰化縣,柳鳳集會所活動中心,04-8225836,彰化縣田尾鄉柳鳳村民生路二段338號,23.911075,120.518046
彰化縣,田尾國小,04-8832745#113,彰化縣田尾鄉饒平村中山路一段449號,23.891877,120.528588
彰化縣,南鎮國小,04-8227962#126,彰化縣田尾鄉南鎮村光復路一段295號,23.886533,120.5607
彰化縣,仁豐國小,04-8830347#72,彰化縣田尾鄉新厝村中正路二段101號,23.902512,120.508227
彰化縣,田尾社區活動中心,0937-720001,彰化縣田尾鄉田尾村光復路三段538巷1號,23.897862,120.51935
彰化縣,北鎮社區活動中心,04-8231700,彰化縣田尾鄉北鎮村平和路二段151號,23.897386,120.554156
彰化縣,溪畔社區活動中心,04-8221022,彰化縣田尾鄉溪畔村溪畔巷157號,23.904474,120.537522
彰化縣,睦宜社區活動中心,04-8831305,彰化縣田尾鄉睦宜村聖德巷162號,23.884077,120.551109
彰化縣,南曾社區活動中心,04-8831256,彰化縣田尾鄉南曾村福德巷185號,23.891504,120.536976
彰化縣,福田社區活動中心,0926-253567,彰化縣田尾鄉福田村光復路一段98巷181號,23.889907,120.564335
彰化縣,豐田集會所活動中心,04-8836955,彰化縣田尾鄉豐田村光復路四段161號,23.903549,120.511065
彰化縣,打簾社區活動中心,04-8224597,彰化縣田尾鄉打簾村民生路一段245號,23.904865,120.532
彰化縣,新厝社區活動中心,04-8832295,彰化縣田尾鄉新厝村光明巷54號,23.90052,120.506046
彰化縣,陸豐社區活動中心,04-8233883,彰化縣田尾鄉陸豐村陸豐路48號,23.919485,120.503328
彰化縣,溪頂社區活動中心,0932597380,彰化縣田尾鄉溪頂村三溪路一段209號,23.897421,120.510506
彰化縣,仁里社區活動中心,04-8831888,彰化縣田尾鄉仁里村中正路二段103巷9號,23.904153,120.506647
彰化縣,天乙宮,04-8833905,彰化縣田尾鄉饒平村建平路一段66號,23.885556,120.528733
彰化縣,海豐村活動中心,04-8815581,彰化縣田尾鄉海豐村中正路三段396巷36號,23.921948,120.501105
彰化縣,正義社區活動中心,0922-567322,彰化縣田尾鄉正義村中正路一段232號,23.891448,120.518911
彰化縣,南鎮社區活動中心,0937710615,彰化縣田尾鄉南鎮村平和路一段140號,23.892496,120.557187
彰化縣,北曾社區活動中心,04-8832468,彰化縣田尾鄉北曾村福德巷359號,23.894772,120.536092
彰化縣,新興社區活動中心,04-8733961,彰化縣田尾鄉新興村新興路280號,23.898481,120.560873
彰化縣,陸豐國小,04-8222563#13,彰化縣田尾鄉陸豐村民生路3段200號,23.917345,120.505044
彰化縣,新生社區活動中心,04-8834790,彰化縣田尾鄉新生村延平路150號,23.889243,120.55088
彰化縣,田尾國中,04-8832174#25,彰化縣田尾鄉饒平村中學路二段18號,23.890784,120.533797
彰化縣,富山國小,0492522084,彰化縣芬園鄉大埔村大埔路6號,24.02719,120.619494
彰化縣,芬園國小,0492522208,彰化縣芬園鄉社口村彰南路4段27巷28號,24.012067,120.62717
彰化縣,茄荖國小,0492523018,彰化縣芬園鄉茄荖村嘉北街96號,24.015331,120.643418
彰化縣,芬園鄉公所,049-2522949,彰化縣芬園鄉社口村芬草路二段300號,24.013718,120.629031
彰化縣,寶山國小,0492525010,彰化縣芬園鄉圳墘村彰南路二段36號,23.986868,120.640063
彰化縣,同安國小,04-8590502,彰化縣芬園鄉中崙村大彰路二段400巷36號,23.977809,120.621268
彰化縣,西勢社區活動中心,04-8857537,彰化縣溪湖鎮西勢里西安路117巷36號,23.931225,120.476643
彰化縣,湖北國小,0929775940,彰化縣溪湖鎮太平里地政路201號,23.965371,120.475729
彰化縣,老人文康中心,04-8852121,彰化縣溪湖鎮大竹里德華街17號,23.956882,120.47851
彰化縣,溪湖鎮立幼兒園,04-8817180,彰化縣溪湖鎮媽厝里湳底路16-30號,23.937684,120.50648
彰化縣,東溪國小,04-8852034,彰化縣溪湖鎮東溪里員鹿路一段538號,23.954128,120.497998
彰化縣,溪湖國小,04-8853126#213,彰化縣溪湖鎮光華里二溪路一段35號,23.95923,120.478528
彰化縣,媽厝國小,04-8853225#818,彰化縣溪湖鎮媽厝里湳底路67號,23.941184,120.496022
彰化縣,湖東國小,0935111601,彰化縣溪湖鎮湖東里大溪路二段423號,23.964312,120.482446
彰化縣,溪湖鎮公所,04-8852121,彰化縣溪湖鎮湖東里青雅路58號,23.966349,120.483718
彰化縣,河東社區活動中心,0932683781,彰化縣溪湖鎮河東里河東路281號,23.962264,120.448671
彰化縣,大庭社區活動中心,04-8815617,彰化縣溪湖鎮大庭里崙仔腳路34-1號,23.948468,120.498587
彰化縣,溪湖國中,04-8852132#501,彰化縣溪湖鎮東寮里彰水路四段60號,23.966875,120.480417
彰化縣,社頭鄉公所大禮堂,04-8732621,彰化縣社頭鄉仁雅村社斗路一段295號,23.896806,120.585836
彰化縣,社頭鄉運動公園體育館,04-8732621,彰化縣社頭鄉美雅村彰化縣社頭鄉美雅村中山路1段172號,23.886959,120.586654
彰化縣,彰化特教,04-8727303,彰化縣社頭鄉仁雅村中山路一段306號,23.892717,120.584506
彰化縣,社頭鄉老人文康活動中心,04-8732621,彰化縣社頭鄉舊社村南勢巷9-16號,23.896153,120.593639
彰化縣,張厝村集會所,04-8732621,彰化縣社頭鄉張厝村張厝村大圳巷9-6號,23.90016,120.576779
彰化縣,湳雅國小活動中心,04-8735007,彰化縣社頭鄉湳雅村山腳路三段395號,23.920449,120.60348
彰化縣,清聖宮,04-8736944,彰化縣社頭鄉清水村清興路50巷71號,23.889211,120.607941
彰化縣,朝興國小,04-8732484,彰化縣社頭鄉朝興村社石路91號,23.908321,120.606493
彰化縣,橋頭國小禮堂,04-8731265#15,彰化縣社頭鄉橋頭村員集路三段528號,23.917679,120.581747
彰化縣,社頭國小,04-8732039#19,彰化縣社頭鄉社頭村社斗路一段258號,23.8975,120.58656
彰化縣,社頭國中,04-8732047,彰化縣社頭鄉廣興村中興路1號,23.901475,120.583955
彰化縣,鄉立幼兒園,04-8927183,彰化縣埤頭鄉平原村彰水路3段352巷45號,23.88878,120.46005
彰化縣,大湖社區活動中心,04-8923012,彰化縣埤頭鄉大湖村大湖路260號,23.865914,120.452754
彰化縣,中和國小活動中心,04-5895768,彰化縣埤頭鄉中和村溪林路284號,23.847387,120.460345
彰化縣,圖書館一樓,04-8927904,彰化縣埤頭鄉合興村文鄉路135號,23.893272,120.458738
彰化縣,老人文康中心,04-8922117,彰化縣埤頭鄉平原村安康街72號,23.889014,120.460031
彰化縣,豐崙國小,04-8922136,彰化縣埤頭鄉豊崙村校前路50號,23.917168,120.460179
彰化縣,埤頭國小,04-8922019,彰化縣埤頭鄉埤頭村中南路145號,23.893135,120.477653
彰化縣,四武宮辦公室,04-89100878,彰化縣埤頭鄉和豊村埔尾路51號,23.889555,120.487081
彰化縣,新庄社區活動中心,04-8927820,彰化縣埤頭鄉新庄村光華路124號,23.860659,120.484176
彰化縣,永豐社區活動中心,04-8927307,彰化縣埤頭鄉永豊村東西路621號,23.89759,120.446154
彰化縣,芙朝社區活動中心,04-8925723,彰化縣埤頭鄉芙朝村文化路829號,23.870494,120.482425
彰化縣,陸嘉社區活動中心,04-8890399,彰化縣埤頭鄉陸嘉村中華路434號,23.855892,120.471129
彰化縣,元埔社區活動中心,04-8925036,彰化縣埤頭鄉元埔村文化路495巷11號,23.871285,120.491496
彰化縣,合興國小,04-8922030,彰化縣埤頭鄉合興村文鄉路161號,23.893896,120.458805
彰化縣,竹圍社區活動中心,04-8894583,彰化縣埤頭鄉竹圍村竹圍路187號,23.851679,120.454611
彰化縣,埤頭國中,04-8922004#47,彰化縣埤頭鄉崙腳村中學路67號,23.880609,120.460494
彰化縣,二水鄉公所,04-8790100#123,彰化縣二水鄉裕民村南通路三段764號,23.806626,120.618984
彰化縣,源泉國小活動中心,04-8792304,彰化縣二水鄉大園村彰化縣二水鄉大園村員集路二段316號,23.799975,120.642437
彰化縣,光化村活動中心,04-8796356,彰化縣二水鄉光化村光進一巷20-1號,23.814156,120.616116
彰化縣,大園村活動中心,04-8791318,"彰化縣二水鄉大園村大園巷 11-9號",23.804172,120.637152
彰化縣,二水村活動中心,04-8790512,彰化縣二水鄉二水村員集路三段625號,23.809726,120.615812
彰化縣,受玄宮,04-8793963,彰化縣二水鄉裕民村裕民巷53號,23.807691,120.6183
彰化縣,海豐村活動中心,04-8792363,彰化縣二水鄉上豊村山腳路一段113-5號,23.817219,120.618504
彰化縣,合興村活動中心,04-8793962,彰化縣二水鄉合興村鼻倡路20號,23.794879,120.642545
彰化縣,倡和村活動中心,04-8793492,彰化縣二水鄉倡和村倡和路41-1號,23.797481,120.649299
彰化縣,過圳村活動中心,04-8796327,彰化縣二水鄉過圳村三義巷30-7號,23.818601,120.607489
彰化縣,五伯村活動中心,04-8795951,彰化縣二水鄉五伯村過圳路222號,23.814865,120.612097
彰化縣,合和村活動中心,04-8796603,彰化縣二水鄉合和村番田一巷46號,23.823509,120.612458
彰化縣,惠民村活動中心,04-8793788,彰化縣二水鄉惠民村山腳路一段48-1號,23.806923,120.632265
彰化縣,復興村活動中心,04-8746279,彰化縣二水鄉復興村員集路5段472號,23.829556,120.604764
彰化縣,十五村活動中心,04-8745687,彰化縣二水鄉十五村十五路33-1號,23.828596,120.601496
彰化縣,修仁村活動中心,04-8790680,彰化縣二水鄉修仁村修仁路27-3號,23.799714,120.630814
彰化縣,文化村活動中心,04-8793700,"彰化縣二水鄉文化村文化一 巷1號",23.811502,120.619067
彰化縣,聖化活動中心,04-8792451,彰化縣二水鄉聖化村溪邊巷78號,23.809815,120.616404
彰化縣,二水國小,04-8792040,彰化縣二水鄉文化村光文路119號,,
南投縣,內湖社區活動中心,049-2612658,南投縣鹿谷鄉內湖村興產路71-5號,23.720632,120.778921
南投縣,瑞田社區活動中心,0910-593561,南投縣鹿谷鄉瑞田村仁愛路69-3號,23.804866,120.792913
南投縣,竹林村集會所,049-2676293,南投縣鹿谷鄉竹林村光復路106-2號,23.727001,120.755472
南投縣,鹿谷社區活動中心,049-2753587,南投縣鹿谷鄉鹿谷村興農巷50-6號,23.748871,120.752698
南投縣,初鄉村集會所,0933-755907,南投縣鹿谷鄉初鄉村仁愛路259-8號,23.767171,120.736481
南投縣,清水社區活動中心,049-2671419　,南投縣鹿谷鄉清水村仁愛路103號,23.791937,120.783405
南投縣,茶席文化館,049-2755720#145,南投縣鹿谷鄉永隆村仁義路41-13號,23.750851,120.776797
南投縣,秀峰社區活動中心,049-2672531,南投縣鹿谷鄉秀峰村仁愛路153-5號,23.782436,120.776574
南投縣,彰雅社區活動中心,0928-997614,"南投縣鹿谷鄉彰雅村和興巷21 號",23.745396,120.755759
南投縣,鹿谷鄉公所,0492755720-111,南投縣鹿谷鄉鹿谷村中正路2段73號,23.74574,120.753248
南投縣,竹豐社區活動中心,049-2755720,南投縣鹿谷鄉竹豐村光復路92-12號,23.731362,120.749959
南投縣,鳳凰社區活動中心,0966-626110,南投縣鹿谷鄉鳳凰村仁義路14-8號,23.735723,120.784443
南投縣,永和社區活動中心,049-2601542,南投縣中寮鄉永和村龍南路321-11號,23.923646,120.731827
南投縣,崁頂社區活動中心,049-2691164,南投縣中寮鄉崁頂村永平路104號,23.874496,120.773897
南投縣,龍安社區活動中心,049-2601314,南投縣中寮鄉龍安村龍南路94-5號,23.941461,120.772499
南投縣,內城社區活動中心,049-2601662,南投縣中寮鄉內城村龍南路6-3號,23.944747,120.788332
南投縣,永安社區活動中心,049-2694508,南投縣中寮鄉復興村復興巷22號,23.892544,120.776369
南投縣,和興社區活動中心,049-2692989,南投縣中寮鄉和興村永樂路143-2號,23.905973,120.806715
南投縣,永福社區活動中心,049-2691519,南投縣中寮鄉永福村永平路400號,23.889205,120.736947
南投縣,爽文社區活動中心,049-2692301,南投縣中寮鄉爽文村龍南路190號,23.934867,120.760071
南投縣,頂興社區活動中心,049-2694178,南投縣中寮鄉廣興村永平路48-12號,23.865763,120.787332
南投縣,中寮國小活動中心,049-2691322,南投縣中寮鄉永平村永平路316號,23.880099,120.764751
南投縣,永芳社區活動中心,049-2601938,南投縣中寮鄉永芳村龍南路269-1號,23.932188,120.750086
南投縣,中寮社區活動中心,049-2694162,南投縣中寮鄉中寮村鄉林巷23號,23.885676,120.757169
南投縣,龍岩村集會所,049-2601787,南投縣中寮鄉龍岩村龍南路154號,23.937591,120.762932
南投縣,廣福國小活動中心,049-2691464,南投縣中寮鄉廣福村內城巷3-2號,23.899206,120.759544
南投縣,福盛社區活動中心,049-2691561,南投縣中寮鄉福盛村永樂路88-8號,23.882842,120.799235
南投縣,爽文老人活動中心,049-2601787,南投縣中寮鄉龍岩村龍南路209-1號,23.935925,120.75893
南投縣,義和社區活動中心,049-2220602,南投縣中寮鄉義和村永平路447-12號,23.894863,120.724397
南投縣,義和村集會所,049-2220602,南投縣中寮鄉義和村永平路513-12號,23.896639,120.714489
南投縣,清水社區活動中心,049-2603528,南投縣中寮鄉清水村瀧林巷2-6號,23.944324,120.790953
南投縣,仙樂社區活動中心,049-2691425,南投縣中寮鄉八仙村仙鹿巷1號,23.879762,120.784043
南投縣,八仙社區活動中心,049-2691425,南投縣中寮鄉八仙村永樂路36-1號,23.880544,120.772386
南投縣,五城村活動中心,049-2897466,南投縣魚池鄉五城村五城巷24-2號,23.887419,120.887871
南投縣,中明社區活動中心,049-2899147,南投縣魚池鄉中明村文正巷5之11號,23.891957,120.92018
南投縣,日月潭特色遊學中心(原光明國小),049-2861723,南投縣魚池鄉武登村銃櫃巷18號,23.81717,120.885794
南投縣,明潭國中,049-2855145,南投縣魚池鄉水社村中山路190號,23.867936,120.91079
南投縣,頭社國小,049-2861237,南投縣魚池鄉頭社村平和巷105號,23.837316,120.902666
南投縣,長興長寮尾活動中心,049-2880168,南投縣魚池鄉共和村長興巷8之11號,23.899253,120.953368
南投縣,新城村避難所,049-2899669,南投縣魚池鄉新城村通文巷8之12號,23.905916,120.925943
南投縣,明潭國小,049-2855045,南投縣魚池鄉水社村中山路191號,23.867936,120.91079
南投縣,頭社村集會所(三聖宮),049-2861579,南投縣魚池鄉頭社村平和巷40之7號,23.822541,120.90745
南投縣,英文堂廣場,049-2895371,南投縣魚池鄉武登村集里路34號,23.831775,120.893987
南投縣,麒麟宮代化堂集會所,049-2895378,南投縣魚池鄉東池村新店巷35號,23.896536,120.939779
南投縣,東光國小,049-2880523,南投縣魚池鄉東光村慶隆巷36號,23.890466,120.966696
南投縣,魚池國小,049-2895537,南投縣魚池鄉魚池村瓊文巷41號,23.898952,120.93731
南投縣,共和國小,049-2880608,南投縣魚池鄉共和村五馬巷57-1號,23.919214,120.966261
南投縣,東光村避難所,049-2880452,南投縣魚池鄉東光村慶隆巷31-9號,23.889847,120.966505
南投縣,五城國小,049-2896455,南投縣魚池鄉五城村華龍巷1-2號,23.890896,120.889143
南投縣,伊達邵國小,049-2850441,南投縣魚池鄉日月村中正路211巷1號,23.848534,120.93547
南投縣,大雁村集會所,0937096725,南投縣魚池鄉大雁村大雁巷2-1號,23.916276,120.918862
南投縣,大雁村山楂腳養靈社區活動中心,0937096725,南投縣魚池鄉大雁村山楂腳巷16-9號(旁邊),23.909265,120.914948
南投縣,大林社區活動中心,0933523998,南投縣魚池鄉大林村嵩山巷27號,23.887322,120.948943
南投縣,大林村集會所,049-2898327,南投縣魚池鄉大林村永川巷4之6號,23.882038,120.944066
南投縣,金安老人會館,049-2899147,南投縣魚池鄉中明村有水巷28-3號,23.883327,120.923738
南投縣,柑林社區活動中心,049-2721002,南投縣國姓鄉柑林村中正路2段224號,24.01799,120.84571
南投縣,南港社區活動中心,049-2452813,南投縣國姓鄉南港村南港路112之11號,23.950849,120.869528
南投縣,南港國小1甲-6甲與3間專科教室,049-2451937,南投縣國姓鄉南港村南港路112之8號,23.950382,120.86926
南投縣,奉天宮,049-2431705,南投縣國姓鄉大旗村大長路307-1號,24.054037,120.873213
南投縣,北山國小1甲-6甲與6間專科教室,049-2451935,南投縣國姓鄉北山村中正路4段19之1號,23.980816,120.893874
南投縣,南天宮,049-2451032,南投縣國姓鄉北山村中正路4段160-1號,23.981686,120.872393
南投縣,碧雲宮,049-2461198,南投縣國姓鄉北港村北圳巷26-1號,24.062633,120.924815
南投縣,港源社區(五榖宮),2452813,南投縣國姓鄉南港村南港路11號,23.935876,120.869163
南投縣,護國宮,0910523351,南投縣國姓鄉石門村國姓路207-5號,24.042507,120.861628
南投縣,福龜社區活動中心,049-2723067,南投縣國姓鄉福龜村富久巷21之3號,24.009882,120.816058
南投縣,長流社區活動中心,049-2431753,南投縣國姓鄉長流村大長路427號,24.070765,120.876234
南投縣,乾溝義民祠,049-2723185,南投縣國姓鄉乾溝村中西巷36號,24.028607,120.813933
南投縣,"育樂國小1甲-6甲與2間專科教室,圖書室,禮堂",049-2721274,南投縣國姓鄉柑林村中正路2段223號,24.017305,120.845862
南投縣,國姓國中禮堂,049-2721144,南投縣國姓鄉國姓村國姓路237號,24.039625,120.856656
南投縣,長豐社區活動中心,049-2431975,南投縣國姓鄉長豐村東三巷36之1號,24.077411,120.871106
南投縣,福龜國小1甲-6甲與2間專科教室,049-2721019,南投縣國姓鄉福龜村長壽巷83號,24.012301,120.82294
南投縣,國姓國小活動中心,049-2721018,南投縣國姓鄉國姓村國姓路311號,24.039625,120.856656
南投縣,穀豐宮-長壽社區,049-2722746,南投縣國姓鄉福龜村長壽巷34-1號,24.022203,120.826925
南投縣,德林念佛寺,049-2461870,南投縣國姓鄉北港村北原路48之1號,24.066579,120.936441
南投縣,大石社區活動中心,049-2451365,南投縣國姓鄉大石村中正路3段235之3號,23.989318,120.861605
南投縣,長流國小1甲-6甲及2間專科教室,049-2431006,南投縣國姓鄉長流村大長路559號,24.066701,120.876329
南投縣,楞嚴宮,049-2431305,南投縣國姓鄉長福村大長路592-1號,24.080563,120.879676
南投縣,國姓社區活動中心,049-2721731,南投縣國姓鄉國姓村民族路40號,24.0376,120.855
南投縣,乾溝社區活動中心,049-2723509,南投縣國姓鄉乾溝村西東巷1之1號,24.029388,120.824167
南投縣,北山國中,049-2451028,南投縣國姓鄉北山村中正路4段157號,23.98054,120.873645
南投縣,"長福國小1甲-6甲,音樂室,圖書室",049-2431295,南投縣國姓鄉長福村大長路71號,24.092749,120.887996
南投縣,乾峰國小1甲-6甲與4間專科教室,049-2721002,南投縣國姓鄉乾溝村中西巷3號,24.027895,120.824609
南投縣,北港村集會所,049-2461033,南投縣國姓鄉北港村國姓路31-12號,24.057535,120.913465
南投縣,北山社區活動中心,0921-786113,南投縣國姓鄉北山村中正路4段112號,23.984791,120.885165
南投縣,中央社區活動中心,2772141,南投縣水里鄉中央村中正路116號,23.814914,120.852127
南投縣,憫世寶宮,049-2777341,南投縣水里鄉水里村水里一路56號,23.818731,120.852233
南投縣,成城國小會議室、105-106、201-208教室,2770140,南投縣水里鄉新城村中山路二段150號,23.819694,120.848389
南投縣,車埕社區活動中心,2772141,南投縣水里鄉車埕村民權巷33-1號,23.833622,120.86443
南投縣,三村集會所,2772141,南投縣水里鄉北埔村博愛路37號,23.812232,120.853693
南投縣,建安宮,049-2811100,南投縣水里鄉新興村帝君巷36號,23.872868,120.871733
南投縣,頂崁社區活動中心,2775391,南投縣水里鄉頂崁村富貴路49-2號,23.798825,120.865885
南投縣,水里國中體育館,2770134,南投縣水里鄉鉅工村民生路68號,23.811019,120.857052
南投縣,義民廟,2770255,南投縣水里鄉城中村民權路335號,23.817421,120.848799
南投縣,永豐社區活動中心,2771352,南投縣水里鄉永豐村南湖一路25號,23.8043,120.857221
南投縣,水里鄉公所,049-2772141#223,南投縣水里鄉鉅工村民生路112號,23.811322,120.856075
南投縣,玉峰社區活動中心,2777123,南投縣水里鄉玉峰村仁愛路7-19號,23.806556,120.835733
南投縣,郡坑國小,2821421,南投縣水里鄉上安村水信路3段303巷8號,23.73696,120.855427
南投縣,水里國小禮堂,2770014,南投縣水里鄉南光村民族路151號,23.810077,120.854753
南投縣,永興社區活動中心,2772223,南投縣水里鄉永興村林朋巷177-1號,23.783973,120.862437
南投縣,民和社區活動中心,049-2741101,南投縣水里鄉民和村民和橋157號,23.797087,120.924508
南投縣,成功里集會所,049-2913566,南投縣埔里鎮成功里種瓜路87-2號,23.957774,120.894527
南投縣,房里里集會所,049-2912456,南投縣埔里鎮房里里房里路25-5號,23.978923,120.949093
南投縣,清新里集會所,049-2986999,南投縣埔里鎮清新里育英街18號1樓,23.963547,120.962299
南投縣,同聲集會所,049-2988835,南投縣埔里鎮同聲里光華街115號,23.959409,120.96552
南投縣,愛蘭里集會所,049-2913035,南投縣埔里鎮愛蘭里梅村路110號,23.970617,120.943726
南投縣,史港國小,049-2931521#60,南投縣埔里鎮史港里獅子路9號,24.012077,120.957627
南投縣,太平社區活動中心,0958-236963,南投縣埔里鎮合成里西安路三段167巷23號,24.033418,120.925239
南投縣,南門里集會所,049-2986294,南投縣埔里鎮南門里南昌街115巷2號,23.96369,120.966925
南投縣,桃米里集會所,049-2912770,南投縣埔里鎮桃米里桃米巷48-1號,23.942716,120.930376
南投縣,向善里集會所,049-2914967,南投縣埔里鎮向善里向善路75號,23.988727,120.925304
南投縣,廣成里社區活動中心,049-2913856,南投縣埔里鎮廣成里西安路3段88號,24.024985,120.949788
南投縣,利河伯社福基金會附設私立基督仁愛之家,049-2930390-234,南投縣埔里鎮福興里福興路146巷48號,24.007397,120.975566
南投縣,北安里集會所,049-2984897,南投縣埔里鎮北安里北安路56號,23.969253,120.971772
南投縣,醒覺堂,049-2995149,南投縣埔里鎮珠格里珠生路59-1號,23.945028,120.956663
南投縣,良善堂,049-2926755,南投縣埔里鎮水頭里中正路121號,23.944642,120.979896
南投縣,蜈蚣里集會所,049-2984622,南投縣埔里鎮蜈蚣里蜈蚣路36號,23.976737,120.989733
南投縣,珠格里集會所,049-2991892,南投縣埔里鎮珠格里珠生路36-5號,23.937594,120.9584
南投縣,枇杷里集會所,049-2988860,南投縣埔里鎮枇杷里和二街1號,23.95793,120.976571
南投縣,泰安里集會所,049-2980005,南投縣埔里鎮泰安里民族二街58號,23.96707,120.975553
南投縣,籃城社區活動中心,0912-916713,南投縣埔里鎮籃城里籃城路21號,23.980981,120.956712
南投縣,福興里集會所,049-2932755,南投縣埔里鎮福興里福興路260號,24.00831,120.969013
南投縣,國立暨南國際大學,049-2910960#2462,南投縣埔里鎮桃米里大學路1號,23.951191,120.930818
南投縣,忠孝國小,049-2931582#203,南投縣埔里鎮牛眠里守城路28號,23.991035,120.979803
南投縣,杷城里集會所,049-2982362,南投縣埔里鎮杷城里民有二街69號,23.958793,120.969925
南投縣,薰化里集會所,049-2988639,南投縣埔里鎮薰化里育英街18號2樓,23.962676,120.962576
南投縣,麒麟國小,049-2925941#16,南投縣埔里鎮麒麟里武界路7號,23.93044,120.990021
南投縣,義民祠,0928-953866,南投縣埔里鎮南村里南村路8-1號,23.963823,120.944578
南投縣,受鎮宮,049-2913856,南投縣埔里鎮廣成里西安路三段88號,24.024985,120.949788
南投縣,東門里集會所,049-2989181,南投縣埔里鎮東門里四維路26號,23.964193,120.971193
南投縣,埔里鎮公所清潔隊,049-2910242,南投縣埔里鎮籃城里中正路1039號,23.992982,120.954905
南投縣,北門里集會所,049-2995377,南投縣埔里鎮東門里四維路26號,23.964193,120.971193
南投縣,水尾國小,049-2932506#113,南投縣埔里鎮一新里中正路511號,23.99888,120.92959
南投縣,中峰國小,049-2982542#115,南投縣埔里鎮大湳里中山路一段228號,23.976524,120.984249
南投縣,埔里高工,049-2982225#407,南投縣埔里鎮枇杷里中山路一段435號,23.972218,120.978454
南投縣,漳興里災民收容所社區活動中心,049-2227563,南投縣南投市漳興里漳興巷51號,23.914618,120.68101
南投縣,軍功里災民收容所里活動中心,049-2201451,南投縣南投市軍功里軍功路140巷76號,23.920788,120.700267
南投縣,永豐里災民收容所里辦公處,049-2253667,南投縣南投市永豐里中華路190巷50號,23.938459,120.670303
南投縣,平和里災民收容所平和國小活動中心,049-2222028,南投縣南投市平和里育樂路62號,23.913202,120.69119
南投縣,東山里災民收容所觀音寺,049-2222950,南投縣南投市東山里東山路13號,23.923762,120.716665
南投縣,營北里災民收容所營北里辦公處,049-2371449,南投縣南投市營北里中正路152-7號,23.951948,120.688385
南投縣,福山里災民收容所社區活動中心,049-2291241,南投縣南投市福山里八卦路521之12號,23.913088,120.637677
南投縣,光華里災民收容所光華國小活動中心,049-2332549,南投縣南投市光華里光華四路2號,23.952584,120.691024
南投縣,鳳鳴里災民收容所鳳鳴國中禮堂,049-2291831,南投縣南投市鳳鳴里八卦路896號,23.924775,120.63966
南投縣,光輝里災民收容所里集會所,049-2324530,南投縣南投市光輝里府西路79號,23.960137,120.686096
南投縣,新興里災民收容所新豐國小禮堂,049-2251804,南投縣南投市新興里彰南路三段221號,23.929444,120.672438
南投縣,彰仁里，崇文里災民收容所南投國小活動中心,049-2222038,南投縣南投市南投里彰南路一段1059號,23.908829,120.684845
南投縣,永興里災民收容所社區活動中心,049-2235456,南投縣南投市永興里八卦路58巷20號,23.892582,120.638904
南投縣,南投里仁和里災民收容所市區七里聯合辦公處,049-2244089,南投縣南投市仁和里民生街33之3號,23.910104,120.685815
南投縣,平山里災民收容所平山里辦公處,049-2260565,南投縣南投市平山里平山二路47巷2號,23.920952,120.674931
南投縣,鳳山里災民收容所鳳山寺,049-2291356,南投縣南投市鳳山里八卦路1310號,23.940803,120.637625
南投縣,振興里災民收容所里辦公處,049-2237190,南投縣南投市振興里振興巷29巷18號,23.903624,120.701211
南投縣,嘉和里，嘉興里災民收容所嘉和里集會所,049-2240693,南投縣南投市嘉和里嘉和一路232巷2號,23.895479,120.687078
南投縣,三民里災民收容所南投高中,049-2231175,南投縣南投市三民里建國路137號,23.9084,120.682479
南投縣,三和里災民收容所里集會所,049-2225041,南投縣南投市三和里彰南路一段992號,23.903683,120.686007
南投縣,內新里災民收容所德興國小活動中心,049-2359050,南投縣南投市內新里中興路200號,23.932493,120.692981
南投縣,福興里災民收容所三玄宮,049-2252889,南投縣南投市福興里吉利路126號,23.946662,120.659347
南投縣,千秋里災民收容所社區活動中心,049-2227180,南投縣南投市千秋里千秋路222號,23.893377,120.706076
南投縣,光明里災民收容所光復國小導師室地下室,049-2332587,南投縣南投市光明里光明一路67號,23.941614,120.70242
南投縣,營南里災民收容所營南里集會所,049-2329087,南投縣南投市營南里營盤路113號,23.943798,120.675358
南投縣,內興里災民收容所中興國中活動中心,049-2335283,南投縣南投市內新里新興路309號,23.933693,120.692831
南投縣,三興里災民收容所南投高商活動中心,049-2222269,南投縣南投市三興里彰南路一段993號,23.903863,120.685319
南投縣,康壽里，龍泉里災民收容所康壽國小活動中心,049-2243457,南投縣南投市康壽里南陽路269號,23.913264,120.686336
南投縣,光榮里災民收容所光榮國小活動中心,049-2332550,南投縣南投市光榮里光榮北路19號,23.946045,120.697013
南投縣,漳和里災民收容所漳和里活動中心,049-2240384,南投縣南投市漳和里文化路532號,23.913841,120.673878
南投縣,漳和里災民收容所南投國中活動中心,049-2222549,南投縣南投市漳和里祖祠路361號,23.913743,120.676946
南投縣,福興里災民收容所福興里集會所,049-2252889,南投縣南投市福興里彰南路三段953號,23.94412,120.665769
南投縣,嘉和里災民收容所嘉和里神木社區活動中心,049-2222110,南投縣南投市嘉和里樂利三街2號,23.892788,120.669713
南投縣,照靈廟,0920420665,南投縣竹山鎮下坪里坊坪巷18-11號,23.7663,120.675976
南投縣,硘磘里集會所,049-2656060,南投縣竹山鎮硘磘里鯉南路99-1號,23.746921,120.675791
南投縣,鯉魚國小活動中心,049-2644787,南投縣竹山鎮鯉魚里鯉行路92號,23.715188,120.654488
南投縣,興天宮,049-2654580,南投縣竹山鎮桂林里中正巷22號,23.755312,120.696747
南投縣,延和里集會所,049-2653442,南投縣竹山鎮延和里大和街42號1樓,23.761569,120.689899
南投縣,富州社區活動中心,049-2622012,南投縣竹山鎮富州里集山路1段422號,23.814115,120.746993
南投縣,延山社區活動中心,049-2651922,南投縣竹山鎮延山里大舜巷36-6號,23.757577,120.728212
南投縣,中央社區活動中心,049-2622052,南投縣竹山鎮中央里集山路1段1236巷6號,23.814536,120.733385
南投縣,下坪社區活動中心,0932687635,南投縣竹山鎮下坪里下坪路18-50號,23.772811,120.681164
南投縣,秀林里集會所,049-2647369,南投縣竹山鎮秀林里頂林路369-6號,23.738038,120.68765
南投縣,竹山國小齊賢館,049-2642016,南投縣竹山鎮延和里向學街32號,23.761759,120.687509
南投縣,瑞竹國小活動中心,049-2711024,南投縣竹山鎮瑞竹里鯉南路251號,23.66404,120.666443
南投縣,福田社區活動中心,049-2644024,南投縣竹山鎮福興里鯉南路136-1號,23.728638,120.66685
南投縣,坪頂里集會所,049-2711951,南投縣竹山鎮坪頂里坪頂路36號,23.674243,120.67316
南投縣,鯉南社區活動中心,0919746801,南投縣竹山鎮鯉魚里鯉行路222號,23.676756,120.657566
南投縣,新生社區活動中心,049-2654230,南投縣竹山鎮中山里新生路346號,23.75033,120.676028
南投縣,廣安宮,049-2711347,南投縣竹山鎮福興里鯉南路186號,23.693804,120.663005
南投縣,過溪國小活動中心,049-2642573,南投縣竹山鎮福興里鯉南路136號,23.727807,120.666499
南投縣,社寮國中教室及活動中心,049-2622010,南投縣竹山鎮山崇里集山路一段1729號,23.809476,120.720518
南投縣,延正里舊社區活動中心,049-2647782,南投縣竹山鎮延正里延正路70號,23.772991,120.697891
南投縣,桂林里集會所,049-2633333,南投縣竹山鎮桂林里中山路7-80號,23.752281,120.691446
南投縣,福興社區活動中心,049-2711169,南投縣竹山鎮福興里鯉南路191號,23.692796,120.66391
南投縣,田子里集會所,049-2658805,南投縣竹山鎮田子里田東路43-6號,23.722404,120.68865
南投縣,祖師公廟三坪院,0933181088,南投縣竹山鎮竹山里竹山路16號,23.756836,120.686026
南投縣,靈德廟城隍廟,049-2644119,南投縣竹山鎮竹山里下橫街16號,23.754912,120.68574
南投縣,社寮社區活動中心,049-2624653,南投縣竹山鎮社寮里大公街75號,23.817428,120.722346
南投縣,桶頭社區活動中心,049-2711542,南投縣竹山鎮桶頭里鯉南路312號,23.645451,120.656756
南投縣,延平國小活動中心,049-2642450,南投縣竹山鎮延平里集山路二段1161號,23.767999,120.707058
南投縣,延正里新社區活動中心,049-2647782,南投縣竹山鎮延正里公正巷30-6號,23.78274,120.692856
南投縣,竹圍里集會所,049-2652406,南投縣竹山鎮竹圍里7鄰枋坪巷1號,23.760306,120.68225
南投縣,中和里集會所,049-2643134,南投縣竹山鎮中和里中和路96-15號,23.768025,120.662947
南投縣,三界公廟,0932687635,南投縣竹山鎮下坪里下坪路29號,23.775704,120.68019
南投縣,竹山鎮第一公有零售市場,049-2643955,南投縣竹山鎮竹山里橫街90號,23.756218,120.68302
南投縣,包公廟,049-2644377,南投縣竹山鎮中正里下橫街一巷27-1號,23.754624,120.685751
南投縣,中正社區活動中心,049-2642278,南投縣竹山鎮桂林里中正巷13-7號,23.754944,120.697061
南投縣,延祥社區活動中心,0937714048,南投縣竹山鎮延祥里鹿山路284巷13號,23.758861,120.701842
南投縣,雲林國小活動中心,049-2643321,南投縣竹山鎮雲林里雲林里大明路666號,23.756785,120.677025
南投縣,瑞竹社區活動中心,2711912,南投縣竹山鎮瑞竹里鯉南路305-15號,23.659248,120.663991
南投縣,中州國小活動中心,049-2622625,南投縣竹山鎮中央里集山路1段955號,23.811837,120.738031
南投縣,德興里集會所,049-2653496,南投縣竹山鎮德興里德興巷43號,23.73646,120.670168
南投縣,中崎社區活動中心,049-2651938,南投縣竹山鎮中崎里集山路3段1392號,23.757484,120.668688
南投縣,大鞍國小活動中心,049-2841009,南投縣竹山鎮大鞍里竹寮巷11號,23.701073,120.717618
南投縣,奉聖宮,049-2651056,南投縣竹山鎮大鞍里竹寮巷19-15號,23.701207,120.716975
南投縣,延和國中活動中心,049-2658641,南投縣竹山鎮延和里鹿山路40號,23.760318,120.695307
南投縣,久美基督長老教會,049-2831554,南投縣信義鄉望美村美信巷31號,23.616989,120.885544
南投縣,新鄉活動中心,049-2831500,南投縣信義鄉新鄉村新鄉路71號,23.640812,120.871167
南投縣,東埔活動中心,049-2702915,南投縣信義鄉東埔村開高巷58號,23.561776,120.927746
南投縣,潭南活動中心,049-2741328,南投縣信義鄉潭南村和平巷36-2號,23.821111,120.938993
南投縣,人和活動中心,049-2776531,南投縣信義鄉人和村民生巷9-1號,23.779199,120.896364
南投縣,內茅埔營林區,049-2791005,南投縣信義鄉自強村綠美巷13號,23.689751,120.850905
南投縣,東光基督長老教會,049-2701402,南投縣信義鄉東埔村開高巷9號,23.554089,120.927345
南投縣,青雲活動中心,049-2742526,南投縣信義鄉地利村開信巷1-1號,23.794035,120.942276
南投縣,久美活動中心,049-2831913,南投縣信義鄉望美村美信巷55-1號,23.619057,120.884268
南投縣,波石雙豐基督長老教會,049-2741363,南投縣信義鄉人和村波石巷124號,23.783999,120.919354
南投縣,"同富國中 -禮堂",049-2701317,南投縣信義鄉同富村同和巷7號,23.595433,120.886752
南投縣,愛國活動中心,049-2791730,南投縣信義鄉愛國村愛國巷114-1號,23.706011,120.83327
南投縣,東埔國小,049-2701340,南投縣信義鄉東埔村開高巷63號,23.561599,120.927957
南投縣,新鄉基督長老教會,049-2831050,南投縣信義鄉新鄉村新鄉路69號,23.640402,120.871345
南投縣,潭南國小,049-2741381,南投縣信義鄉潭南村和平巷49號,23.821297,120.940253
南投縣,豐丘基督長老教會,049-2791762,南投縣信義鄉豐丘村高平巷28-1號,23.672343,120.874823
南投縣,雙龍國小,049-2741325*116,南投縣信義鄉雙龍村光復巷4號,23.786004,120.949831
南投縣,桐林活動中心,0912701302,南投縣信義鄉同富村太平巷85號,23.558191,120.873341
南投縣,地利國小,049-2741254,南投縣信義鄉地利村開信巷17號,23.794194,120.943374
南投縣,風斗避難中心,049-2791908,南投縣信義鄉自強村陽和巷54號,23.671295,120.856685
南投縣,"信義國中 -禮堂",049-2791129,南投縣信義鄉明德村玉山路20號,23.696325,120.853952
南投縣,望鄉基督長老教會,049-2701242,南投縣信義鄉卡里布安村望和巷140號,23.598925,120.884956
南投縣,望鄉活動中心,049-2701389,南投縣信義鄉卡里布安村望和巷6號,23.601234,120.884563
南投縣,豐丘體技場,049-2791583,南投縣信義鄉豐丘村高平巷8號,23.670615,120.875208
南投縣,和社台大實驗林,049-2701004,南投縣信義鄉同富村同和巷47-1號,23.591646,120.888052
南投縣,東埔基督長老教會,049-2701214,南投縣信義鄉東埔村開高巷79號,23.561952,120.929247
南投縣,羅娜基督長老教會,049-2831231,南投縣信義鄉羅娜村信筆巷37號,23.627506,120.86941
南投縣,雙龍活動中心,049-2742215,南投縣信義鄉雙龍村光復巷32號,23.783612,120.947813
南投縣,迪巴恩基督長老教會,049-2741295,南投縣信義鄉雙龍村光復50號,23.782764,120.945564
南投縣,羅娜天主教,049-2831250,南投縣信義鄉羅娜村信筆巷139號,23.629,120.873557
南投縣,羅娜國小,049-2831327,南投縣信義鄉羅娜村信筆巷73號,23.628337,120.87009
南投縣,雙龍天主教,049-2742227,南投縣信義鄉雙龍村光復巷23號,23.783861,120.948486
南投縣,大洋部落真耶穌教會,049-2955666,南投縣仁愛鄉力行村新望洋128號,24.147576,121.190174
南投縣,春陽國小,049-2802573,南投縣仁愛鄉春陽村5鄰永樂巷58號,24.027968,121.149255
南投縣,法治村活動中心,049-2977201,南投縣仁愛鄉法治村界山巷12號,23.916101,121.044888
南投縣,精英村辦公處,049-2970913,南投縣仁愛鄉精英村中華巷18-1號,24.03508,121.184791
南投縣,都達國小,049-2970053,南投縣仁愛鄉都達村法觀路17號,24.059515,121.192195
南投縣,松崗活動中心,049-2802583,南投縣仁愛鄉大同村博望巷42號,24.075005,121.170939
南投縣,仁愛國小,049-2802373,南投縣仁愛鄉大同村山農巷5號,24.020472,121.133247
南投縣,親愛國小萬大分校萬大部落,049-2974032,南投縣仁愛鄉親愛村大安路87號,23.974225,121.127932
南投縣,翠巒馬力觀基督長老教會,04-25960703,南投縣仁愛鄉翠華村翠巒路16-1號,24.17964,121.207376
南投縣,紅香部落紅葉國小,049-2955075,南投縣仁愛鄉發祥村仁盛路70號,24.159707,121.177232
南投縣,德鹿谷活動中心,049-2970912,南投縣仁愛鄉合作村莎都部落1巷56號,24.021495,121.184126
南投縣,萬豐國小,049-2974123,南投縣仁愛鄉萬豐村清華巷8號,23.946871,121.076248
南投縣,中正村活動中心,049-2926534,南投縣仁愛鄉中正村光明路60號,23.907644,120.989857
南投縣,楓林活動中心,049-2920075,南投縣仁愛鄉南豐村楓林路37-1號,23.998484,121.072705
南投縣,仁愛國中,049-280220#11,南投縣仁愛鄉大同村信義路28號,24.033186,121.141763
南投縣,南豐國小,049-2920037,南投縣仁愛鄉南豐村楓林路3號,24.000305,121.078613
南投縣,德鹿谷國小,049-2970063,南投縣仁愛鄉合作村莎都部落1巷23號,24.035169,121.184993
南投縣,翠巒活動中心,04-25960192,南投縣仁愛鄉翠華村翠巒路38號,24.183674,121.203218
南投縣,臺灣基督長老教會馬烈霸教會,049-2955666,南投縣仁愛鄉力行村新望洋7號,24.146274,121.190389
南投縣,瑞岩部落發祥活動中心,049-2955670,南投縣仁愛鄉發祥村瑞和路1-1號,24.115579,121.160616
南投縣,德鹿谷長老教會,049-2970912,南投縣仁愛鄉合作村卜溪部落1巷42號,24.023292,121.133244
南投縣,華崗活動中心,04-25960192,南投縣仁愛鄉翠華村翠華村華崗120號.,24.193055,121.226828
南投縣,梅村部落梅村長老教會,049-2955745,南投縣仁愛鄉發祥村溪門巷7號,24.15127,121.179785
南投縣,基督長老教會柄史布淦教會,049-2955513,南投縣仁愛鄉發祥村瑞和路19號,24.115734,121.16049
南投縣,望洋部落力行活動中心,049-2955666,南投縣仁愛鄉力行村新望洋62號,24.147461,121.188992
南投縣,真耶穌教會慈峰教會,049-2955666,南投縣仁愛鄉發祥村慈峰巷21號,24.131191,121.18442
南投縣,溫泉部落鄰長住宅,049-2955666,南投縣仁愛鄉力行村溫泉巷18號,24.163699,121.180254
南投縣,松林活動中心(松林部落),049-2974201,南投縣仁愛鄉親愛村親和巷74號,23.969591,121.098283
南投縣,親愛國小(親愛部落),049-2974033,南投縣仁愛鄉親愛村高平路3號,23.967763,121.109247
南投縣,史努櫻長老教會,04-92802294,南投縣仁愛鄉永樂巷58號,24.027968,121.149255
南投縣,廬山基督長老教會,049-2970072,南投縣仁愛鄉精英村中華巷26號,24.034763,121.185248
南投縣,廬山國民小學,049-2970385,南投縣仁愛鄉精英村中華巷19號,24.035074,121.186213
南投縣,力行國小翠巒分校,04-25960165,南投縣仁愛鄉力行村翠巒路26號,,
南投縣,碧綠溪農場,04-25991119,南投縣仁愛鄉榮興村6鄰碧綠巷27號,24.226015,121.279703
南投縣,眉溪天主堂,049-2920775,南投縣仁愛鄉南豐村中正路14號,24.007166,121.095817
南投縣,清流活動中心,049-2941162,南投縣仁愛鄉互助村明月巷80附1號,24.069317,120.953368
南投縣,中原活動中心,049-2941162,南投縣仁愛鄉互助村原名路169號,24.066642,120.972905
南投縣,新生活動中心,049-2941162,南投縣仁愛鄉新生村山林巷17之1號,24.07992,120.987902
南投縣,萬大電廠活動中心,049-2974201,南投縣仁愛鄉親愛村大安路90之1號,23.974385,121.127638
南投縣,中原國小禮堂,049-2554631,南投縣草屯鎮中原里坪腳巷20號,23.988835,120.719516
南投縣,上林老人活動中心,049-2335114,南投縣草屯鎮上林里草溪路599巷2弄8號,23.969079,120.67635
南投縣,南埔社區活動中心,049-2552410,南投縣草屯鎮南埔里中正路青宅巷56號,23.981041,120.721138
南投縣,龍泉宮,049-2568513,南投縣草屯鎮北勢里玉屏巷24-2號,23.992671,120.742315
南投縣,坪頂國小,049-2552074,南投縣草屯鎮坪頂里南坪路40-2號,23.967269,120.739692
南投縣,石川社區活動中心,049-2356627,南投縣草屯鎮石川里石川路46-10號,24.001287,120.650057
南投縣,碧洲社區活動中心,049-2380262,南投縣草屯鎮碧洲里立人路781巷51號,23.960788,120.66911
南投縣,嘉長宮活動中心,049-2354886,南投縣草屯鎮加老里加老東路68號,24.000675,120.66645
南投縣,加老里集會所,049-2326497,南投縣草屯鎮加老里加老路268號,24.001223,120.656385
南投縣,新庄里集會所,049-2330669,南投縣草屯鎮新庄里芬草路二段342號,23.992213,120.672186
南投縣,南埔里集會所,049-2553300,南投縣草屯鎮南埔里中正路305號,23.980083,120.721046
南投縣,中原里集會所,049-2554436,南投縣草屯鎮中原里中和路57號,23.987891,120.71831
南投縣,永和宮,049-2560359,南投縣草屯鎮中原里中和路57-1號,23.987616,120.718293
南投縣,北勢里集會所,049-2567052,南投縣草屯鎮北勢里玉屏路129-1號,23.99522,120.717268
南投縣,敦和宮地下室,049-2323793,南投縣草屯鎮敦和里敦和路74號,23.980353,120.679918
南投縣,富功國小禮堂,049-2569213,南投縣草屯鎮富寮里中正路567號,23.979727,120.69821
南投縣,草屯國中禮堂,049-2362050,南投縣草屯鎮炎峰里虎山路808號,23.977284,120.686437
南投縣,虎山國小禮堂,049-2339107,南投縣草屯鎮山腳里新生路76號,23.962855,120.684486
南投縣,雙冬國小,049-2571362,南投縣草屯鎮雙冬里中正路34-7號,23.984712,120.795112
南投縣,敦和里集會所,049-2311679,南投縣草屯鎮敦和里仁愛街156號,23.982246,120.678675
南投縣,坪頂里集會所,049-2553889,南投縣草屯鎮坪頂里南坪路40-1號,23.966919,120.73896
南投縣,南埔將軍廟文教中心,049-2568603,南投縣草屯鎮南埔里中正路344-46號,23.977941,120.71801
南投縣,御史里新集會所,049-2311471,南投縣草屯鎮御史里登輝路163號,23.9892,120.691317
南投縣,鎮立幼兒園,049-2313114,南投縣草屯鎮復興里復興路475號,23.969833,120.667997
南投縣,雙冬里集會所,049-2571599,南投縣草屯鎮雙冬里中正路63-10號,23.983051,120.790458
南投縣,北投社區活動中心,0936-493170,南投縣草屯鎮北投里史舘路北勢巷54號,23.985558,120.660647
南投縣,新庄國小禮堂,049-2333104,南投縣草屯鎮新庄里新庄三路32號,23.99511,120.667891
南投縣,平林里集會所,049-2572288,南投縣草屯鎮平林里健行路65巷31號,23.991133,120.764291
南投縣,富寮社區活動中心,049-2564899,南投縣草屯鎮富寮里富頂路一段103號,23.977754,120.700511
南投縣,土城國小禮堂,049-2552024,南投縣草屯鎮土城里中正路189號,23.983998,120.742786
南投縣,碧峰國小禮堂,049-2334304,南投縣草屯鎮碧峰里立人路439號,23.969203,120.665664
南投縣,石川里集會所,049-2327162,南投縣草屯鎮石川里石川路37-37號,23.993812,120.649601
南投縣,敦和國小禮堂,049-2365074,南投縣草屯鎮敦和里敦和路72-6號,23.981673,120.677511
南投縣,草屯國小禮堂,049-2362007,南投縣草屯鎮玉峰里玉屏路210號,23.98128,120.687178
南投縣,紫微宮,049-2358902,南投縣草屯鎮上林里草溪路214號,23.96482,120.680874
南投縣,永安宮,049-2568513,南投縣草屯鎮北勢里玉屏路129號,23.995222,120.717198
南投縣,平林國小,049-2571761,南投縣草屯鎮平林里健行路65巷90號,23.992281,120.762353
南投縣,復興里集會所,049-2336449,南投縣草屯鎮復興里復興路432-1號,23.968848,120.668519
南投縣,碧峰里集會所,049-2314208,南投縣草屯鎮碧峰里碧峰路135巷6號,23.97189,120.660573
南投縣,新厝里集會所暨活動中心,049-2367999,南投縣草屯鎮新厝里新富一街1號,23.969732,120.68579
南投縣,山腳里集會所暨活動中心,049-2332160,南投縣草屯鎮山腳里虎山路299號,23.964962,120.685379
南投縣,土城里集會所,049-2552140,南投縣草屯鎮土城里中正路167之15號,23.984362,120.743967
南投縣,旭光高中禮堂,049-2563472,南投縣草屯鎮富寮里中正路568-23號,23.980096,120.69474
南投縣,新豐社區活動中心,049-2323152,南投縣草屯鎮新豐里番子田路100號,24.000966,120.676585
南投縣,碧洲里集會所,049-2380262,南投縣草屯鎮碧洲里碧峰路669巷21號,23.959871,120.663289
南投縣,松嶺社區活動中心,0912-781239,南投縣名間鄉松山村豐柏路38號,23.834242,120.633861
南投縣,新民村集會所,049-2734560,南投縣名間鄉新民村外埔巷11之28號,23.818466,120.692424
南投縣,竹圍村社區活動中心,049-2734350,南投縣名間鄉竹圍村竹圍巷39號,23.858229,120.638182
南投縣,赤水社區活動中心,049-2271519,南投縣名間鄉赤水村南田路258之10號,23.859515,120.631699
南投縣,松柏村集會所,049-2581563,南投縣名間鄉松柏村名松路二段216之1號,23.834645,120.635408
南投縣,新厝村集會所,049-2732768,南投縣名間鄉新厝村新厝路74號,23.842718,120.659069
南投縣,東仁社區活動中心,0928-923943,南投縣名間鄉東湖村大老巷34號,23.864998,120.699941
南投縣,三崙社區活動中心,0952795056,南投縣名間鄉三崙村中庄巷7號,23.846761,120.636713
南投縣,炭寮村集會所,049-2734560,南投縣名間鄉炭寮村炭寮巷1之50號,23.827349,120.676464
南投縣,濁水村集會所,049-2732409,南投縣名間鄉濁水村福興巷14號（福興宮旁）,23.83079,120.712096
南投縣,仁和村集會所,049-2735246,南投縣名間鄉仁和村山腳巷17-2號,23.856141,120.70556
南投縣,大庄村集會所,049-2271037,南投縣名間鄉大庄村大廈巷82-4號,23.872199,120.655077
南投縣,萬丹社區活動中心,049-2220496,南投縣名間鄉萬丹村新丹巷38-2號,23.882691,120.706293
南投縣,田仔社區活動中心,0933503156,南投縣名間鄉田仔村田仔巷41之2號,23.870204,120.675087
南投縣,公所中山堂,2732116-110,南投縣名間鄉中正村彰南路40-1號,23.838134,120.703232
南投縣,錦梓社區活動中心,049-2272889,南投縣名間鄉赤水村皮子寮巷21號,23.866707,120.627551
南投縣,新街村集會所,049-2231373,南投縣名間鄉新街村彰南路472號,23.879739,120.693359
南投縣,虎坑社區活動中心,0936-497425,南投縣名間鄉東湖村虎坑巷6之1號,23.862461,120.695667
南投縣,南雅村集會所,049-2731383,南投縣名間鄉南雅村市場巷20-2號,23.837015,120.702834
南投縣,廈新社區活動中心,0919-024516,南投縣名間鄉新光村大廈巷30號,23.856759,120.675809
南投縣,廍下社區活動中心,0932-271018,南投縣名間鄉廍下村大岩巷30之8號,23.876391,120.63542
南投縣,埔中村民眾活動中心,0933-420047,南投縣名間鄉埔中村埔中巷11-12號,23.820957,120.643583
南投縣,崁腳村民眾活動中心,049-2582662,南投縣名間鄉崁腳村名松路一段350號,23.835349,120.660022
南投縣,中山村集會所,049-2731889,南投縣名間鄉中山村名松路一段83號,23.841908,120.693155
南投縣,弓鞋社區活動中心,0912-582851,南投縣名間鄉三崙村弓鞋巷16之2號,23.850406,120.626169
南投縣,大坑村集會所,049-2271297,南投縣名間鄉大坑村武東巷11之2號,23.86045,120.657816
南投縣,陸軍兵工整備發展中心,049-2781503,南投縣集集鎮田寮里龍泉巷15號,23.835896,120.751034
南投縣,八張里里集會所暨社區活動中心,049-2762957,南投縣集集鎮八張里八張街181號,23.830766,120.792115
南投縣,集集國民中學,049-2762013,南投縣集集鎮集集里成功路200號,23.831899,120.784477
苗栗縣,六合國小操場,037-663065#820,苗栗縣頭份市東庄里民族路252號,24.68559,120.901204
苗栗縣,興隆社區活動中心,0931-323280,苗栗縣頭份市興隆里興隆路一段19號,24.696753,120.931276
苗栗縣,山下社區活動中心,0933-195644,苗栗縣頭份市山下里山下一街490號,24.701874,120.905466
苗栗縣,珊湖社區活動中心,037-601340,苗栗縣頭份市珊湖里中正三路303號,24.684487,120.959829
苗栗縣,斗煥國小操場,037-663848#14,苗栗縣頭份市斗煥里中正二路221號,24.680468,120.947519
苗栗縣,濫坑社區活動中心,037-543892,苗栗縣頭份市濫坑里4鄰藤坪44號,24.63256,120.885782
苗栗縣,新華社區第一活動中心,0936-752349,苗栗縣頭份市新華里大營路51巷31弄26號,24.681221,120.940428
苗栗縣,廣興社區活動中心,037-626999,苗栗縣頭份市廣興里5鄰廣興126-1號,24.65832,120.886854
苗栗縣,忠孝社區活動中心,0938-986299,苗栗縣頭份市忠孝里2鄰忠孝2路83號,24.69196,120.911351
苗栗縣,東庄社區活動中心,0972-288026,苗栗縣頭份市東庄里7鄰八德一路66號,24.687118,120.893289
苗栗縣,蟠桃國小操場,037-685410#16,苗栗縣頭份市蟠桃里信東路285號,24.693013,120.906914
苗栗縣,永貞國小操場,037-623290#718,苗栗縣頭份市田寮里永貞路1段335號,24.680924,120.884304
苗栗縣,尖山國小操場,037-624474#51,苗栗縣頭份市尖下里尖豐路305號,24.654309,120.883126
苗栗縣,民族社區活動中心,0931-668233,苗栗縣頭份市民族里東興路108號,24.683751,120.904425
苗栗縣,頭份國小操場,037-663020#302,苗栗縣頭份市頭份里中正路219號,24.687823,120.912184
苗栗縣,后庄國小操場,0928-973322,苗栗縣頭份市文化里文化街20號,24.696379,120.898241
苗栗縣,頭份市公所中山堂,037-663038#1313,苗栗縣頭份市仁愛里中山路232號,24.68654,120.913236
苗栗縣,中山社區活動中心,0937-224420,苗栗縣頭份市尖下里11鄰尖豐路578巷56弄1號,24.648458,120.8826
苗栗縣,下興社區活動中心,037-571216,苗栗縣頭份市下興里7鄰下東興78-7號,24.678272,120.909026
苗栗縣,田寮社區活動中心,0931-244845,苗栗縣頭份市田寮里7鄰南田街213號,24.680671,120.887146
苗栗縣,頭份市公所藝術館,037-663038#1313,苗栗縣頭份市仁愛里中山路234號,24.68654,120.913236
苗栗縣,信德國小操場,037-602880#220,苗栗縣頭份市流東里信德路58號,24.686798,120.960532
苗栗縣,建國成功社區活動中心,037-669568,苗栗縣頭份市建國里建國路122巷30號,24.696062,120.909632
苗栗縣,新興國小操場,037-663855#31,苗栗縣頭份市下興里水源路157號,24.675156,120.912925
苗栗縣,建國國小操場,037-665905#3018,苗栗縣頭份市建國里建國路80號,24.694785,120.911789
苗栗縣,上埔社區活動中心,0936-307559,苗栗縣頭份市上埔里上埔路83號,24.693225,120.922308
苗栗縣,頭份運動公園,037-663038#1100,苗栗縣頭份市東庄里八德一路124號,24.689668,120.893184
苗栗縣,建國國中操場,037-691491#16,苗栗縣頭份市成功里建國路119號,24.695373,120.910223
苗栗縣,信義國小操場,037-626818#101,苗栗縣頭份市後庄里信中路36號,24.69706,120.890741
苗栗縣,頭份國中操場,037-663207#501,苗栗縣頭份市蟠桃里中央路275號,24.691741,120.901349
苗栗縣,文英國中操場,037-624260#31,苗栗縣頭份市尖下里200號,24.65576,120.880215
苗栗縣,興華高中操場,037-663403#142,苗栗縣頭份市新華里中正一路401號,24.685746,120.935937
苗栗縣,高埔社區活動中心,037-981469,苗栗縣西湖鄉高埔村9鄰山頂12號,24.509834,120.770155
苗栗縣,西湖鄉農特產品展售綜合活動中心,037-923601,苗栗縣西湖鄉三湖村1鄰店仔街4之1號,24.558909,120.756206
苗栗縣,五湖社區活動中心,037-911606,苗栗縣西湖鄉五湖村13鄰五湖街194-4號,24.524635,120.770419
苗栗縣,四湖社區活動中心,037-921702,苗栗縣西湖鄉四湖村4鄰學堂下11號,24.531341,120.745446
苗栗縣,苗栗縣西湖鄉五湖國民小學籃球場,037-911244,苗栗縣西湖鄉五湖村6鄰上湖96號,24.522103,120.776622
苗栗縣,苗栗縣立西湖國民中學,037-921016,苗栗縣西湖鄉龍洞村1鄰龍洞1之1號,24.55598,120.757386
苗栗縣,苗栗縣西湖鄉西湖國民小學籃球場,037-921022,苗栗縣西湖鄉龍洞村1鄰龍洞18號,24.557486,120.757675
苗栗縣,造橋鄉綜合活動中心-室外,037-543250#133,苗栗縣造橋鄉大西村慈聖路二段322巷1號,24.623574,120.887482
苗栗縣,朝陽社區活動中心-室內,037-622627,苗栗縣造橋鄉朝陽村9鄰24-5號,24.661318,120.862452
苗栗縣,龍昇社區活動中心-室內,037-651363#104,苗栗縣造橋鄉龍昇村8鄰16-1號,24.640847,120.829638
苗栗縣,平興社區活動中心-室內,037-542754,苗栗縣造橋鄉平興村10鄰白埔林16-2號,24.624821,120.86915
苗栗縣,豐湖社區活動中心-室內,037-562125,苗栗縣造橋鄉豐湖村4鄰八十尺橋5-1號,24.613417,120.837221
苗栗縣,造橋國小操場-室外,037-542686轉104,苗栗縣造橋鄉造橋村14鄰老庄3號,24.637771,120.865227
苗栗縣,談文國小操場-室外,037-624044轉22,苗栗縣造橋鄉談文村6鄰54號,24.652643,120.850177
苗栗縣,龍昇國小操場-室外,037-651363#104,苗栗縣造橋鄉龍昇村8鄰16-1號,24.640847,120.829638
苗栗縣,錦水國小操場-室外,037-541978轉15,苗栗縣造橋鄉大西村大中街68號,24.624248,120.894032
苗栗縣,大西國中操場-室外,037-541080#14,苗栗縣造橋鄉大西村大中街73號,24.624659,120.895028
苗栗縣,造橋社區活動中心-室內,037-563609,苗栗縣造橋鄉造橋村老庄3-2號,24.638719,120.865529
苗栗縣,談文社區活動中心-室內,037-611486,苗栗縣造橋鄉談文村8鄰談文湖47之3號,24.654219,120.853409
苗栗縣,造橋國小活動中心-室內,037-542686轉104,苗栗縣造橋鄉造橋村14鄰3號,24.637771,120.865227
苗栗縣,大西社區活動中心-室內,037-541899,苗栗縣造橋鄉大西村13鄰大西二街128巷7號,24.623009,120.894812
苗栗縣,海口國小-操場,037-461354,苗栗縣竹南鎮海口里7鄰保福路20號,24.675491,120.861616
苗栗縣,竹興社區活動中心-竹南鎮老人文康活動中心,037-468888,苗栗縣竹南鎮竹興里新興街48巷6號,24.690458,120.859549
苗栗縣,大厝社區活動中心,037-461121,苗栗縣竹南鎮大厝里真如路560號,24.678369,120.871498
苗栗縣,佳興社區活動中心,037-552417,苗栗縣竹南鎮佳興里光復路452號,24.69489,120.879745
苗栗縣,大同高中-操場,037-580566,苗栗縣竹南鎮大埔里公義路890號,24.707901,120.895328
苗栗縣,竹南國小-操場,037-462020,苗栗縣竹南鎮大厝里中正路146號,24.683876,120.869477
苗栗縣,大埔社區活動中心,037-582585,苗栗縣竹南鎮大埔里公義路936號,24.708739,120.897046
苗栗縣,竹興國小-操場,037-465037,苗栗縣竹南鎮竹興里竹圍街27號,24.687663,120.864869
苗栗縣,照南國小活動中心,037-472633,苗栗縣竹南鎮佳興里光復路331號,24.69404,120.879232
苗栗縣,新南國小-操場,613843#101,苗栗縣竹南鎮新南里五谷街2號,24.688179,120.885088
苗栗縣,竹南運動公園,037-625648,苗栗縣竹南鎮新南里17鄰永貞路二段196號,24.689128,120.886045
苗栗縣,竹南鎮公所三樓演藝廳,037-462101轉110,苗栗縣竹南鎮正南里中正路112號,24.683841,120.873361
苗栗縣,外埔國小教室,037-431809,苗栗縣後龍鎮外埔里6鄰外埔18-9號,24.650822,120.77902
苗栗縣,同光國小操場,037-450738#14,苗栗縣後龍鎮龍津里龍津里10鄰同興94號,24.610126,120.761765
苗栗縣,後龍國中活動中心,037-722028#230,苗栗縣後龍鎮南龍里23鄰勝利街250號,24.616631,120.784617
苗栗縣,後龍國中操場,037-722028#230,苗栗縣後龍鎮南龍里23鄰勝利街250號,24.616631,120.784617
苗栗縣,溪洲國小綜合球場,037-723853#10,苗栗縣後龍鎮溪洲里87-3號,24.620956,120.776741
苗栗縣,成功國小操場,037-722211#14,苗栗縣後龍鎮水尾里水尾里12鄰104-1號,24.63268,120.761747
苗栗縣,龍坑國小操場,037-722027#13,苗栗縣後龍鎮龍坑里龍坑里十班坑158號,24.601925,120.778154
苗栗縣,北龍社區活動中心,037-730935,苗栗縣後龍鎮北龍里7鄰東門街151號,24.615404,120.790786
苗栗縣,後龍國小活動中心,037-722049#832,苗栗縣後龍鎮大庄里成功路254號,24.613833,120.796137
苗栗縣,新港國中小活動中心,037-722547#241,苗栗縣後龍鎮校椅里校椅二路168號,24.610593,120.826607
苗栗縣,大山國小教室,037-432784#13,苗栗縣後龍鎮灣寶里7鄰109號,24.645664,120.809528
苗栗縣,海寶國小教室,037-431235#13,苗栗縣後龍鎮海寶里5鄰52-2號,24.661822,120.821738
苗栗縣,龍坑國小教室,037-722027#13,苗栗縣後龍鎮龍坑里龍坑里十班坑158號,24.601925,120.778154
苗栗縣,中和國小綜合教室,037-921451#13,苗栗縣後龍鎮中和里中和里14鄰152號,24.588097,120.734731
苗栗縣,新港國中小操場,037-722547#241,苗栗縣後龍鎮校椅里校椅二路168號,24.610593,120.826607
苗栗縣,大山國小操場,037-432784#13,苗栗縣後龍鎮灣寶里7鄰龍山路109號,24.642104,120.806507
苗栗縣,海寶國小操場,037-431235#13,苗栗縣後龍鎮海寶里5鄰52-2號,24.661822,120.821738
苗栗縣,維真國中活動中心,037-722537#23,苗栗縣後龍鎮大庄里中山路252號,24.612202,120.794681
苗栗縣,後龍國小操場,037-722049-832,苗栗縣後龍鎮大庄里成功路254號,24.613833,120.796137
苗栗縣,外埔國小操場,037-431809,苗栗縣後龍鎮外埔里6鄰外埔18-9號,24.650822,120.77902
苗栗縣,中和國小操場,037-921451#13,苗栗縣後龍鎮中和里中和里14鄰152號,24.588097,120.734731
