{
    "type": "FeatureCollection",
    "features": [
        {
            "type": "Feature",
            "properties": {
                "county": "雲林縣",
                "name": "大埤國中（含操場）",
                "phone": "05-5912051",
                "address": "雲林縣大埤鄉南和村民權路80號"
            },
            "geometry": {
                "type": "Point",
                "coordinates": [
                    120.429554,
                    23.641898
                ]
            }
        },
        {
            "type": "Feature",
            "properties": {
                "county": "雲林縣",
                "name": "仁和國小（含操場）",
                "phone": "05-5912454",
                "address": "雲林縣大埤鄉豐岡村仁和路4號"
            },
            "geometry": {
                "type": "Point",
                "coordinates": [
                    120.42257,
                    23.66267
                ]
            }
        },
        {
            "type": "Feature",
            "properties": {
                "county": "雲林縣",
                "name": "舊庄國小（含操場）",
                "phone": "05-5912094",
                "address": "雲林縣大埤鄉怡然村怡然路92號"
            },
            "geometry": {
                "type": "Point",
                "coordinates": [
                    120.401596,
                    23.63381
                ]
            }
        },
        {
            "type": "Feature",
            "properties": {
                "county": "雲林縣",
                "name": "大埤國小（含操場）",
                "phone": "05-5912007",
                "address": "雲林縣大埤鄉南和村中正路23號"
            },
            "geometry": {
                "type": "Point",
                "coordinates": [
                    120.432122,
                    23.644887
                ]
            }
        },
        {
            "type": "Feature",
            "properties": {
                "county": "雲林縣",
                "name": "嘉興國小（含操場）",
                "phone": "05-5912434",
                "address": "雲林縣大埤鄉嘉興村嘉興65號"
            },
            "geometry": {
                "type": "Point",
                "coordinates": [
                    120.459329,
                    23.647203
                ]
            }
        },
        {
            "type": "Feature",
            "properties": {
                "county": "雲林縣",
                "name": "豐田村里活動中心（含室外廣場）",
                "phone": "05-5912038",
                "address": "雲林縣大埤鄉豐田村豐田12-1號"
            },
            "geometry": {
                "type": "Point",
                "coordinates": [
                    120.459965,
                    23.658432
                ]
            }
        },
        {
            "type": "Feature",
            "properties": {
                "county": "雲林縣",
                "name": "聯美國小（含操場）",
                "phone": "05-5912224",
                "address": "雲林縣大埤鄉聯美村聯豐路99號"
            },
            "geometry": {
                "type": "Point",
                "coordinates": [
                    120.400274,
                    23.650312
                ]
            }
        },
        {
            "type": "Feature",
            "properties": {
                "county": "雲林縣",
                "name": "雲林縣大埤鄉公所(四樓大禮堂)",
                "phone": "05-5912116",
                "address": "雲林縣大埤鄉北和村中山路8號"
            },
            "geometry": {
                "type": "Point",
                "coordinates": [
                    120.431231,
                    23.64582
                ]
            }
        }
    ]
}