{
    "type": "FeatureCollection",
    "features": [
        {
            "type": "Feature",
            "properties": {
                "county": "南投縣",
                "name": "柑林社區活動中心",
                "phone": "049-2721002",
                "address": "南投縣國姓鄉柑林村中正路2段224號"
            },
            "geometry": {
                "type": "Point",
                "coordinates": [
                    120.84571,
                    24.01799
                ]
            }
        },
        {
            "type": "Feature",
            "properties": {
                "county": "南投縣",
                "name": "南港社區活動中心",
                "phone": "049-2452813",
                "address": "南投縣國姓鄉南港村南港路112之11號"
            },
            "geometry": {
                "type": "Point",
                "coordinates": [
                    120.869528,
                    23.950849
                ]
            }
        },
        {
            "type": "Feature",
            "properties": {
                "county": "南投縣",
                "name": "南港國小1甲-6甲與3間專科教室",
                "phone": "049-2451937",
                "address": "南投縣國姓鄉南港村南港路112之8號"
            },
            "geometry": {
                "type": "Point",
                "coordinates": [
                    120.86926,
                    23.950382
                ]
            }
        },
        {
            "type": "Feature",
            "properties": {
                "county": "南投縣",
                "name": "奉天宮",
                "phone": "049-2431705",
                "address": "南投縣國姓鄉大旗村大長路307-1號"
            },
            "geometry": {
                "type": "Point",
                "coordinates": [
                    120.873213,
                    24.054037
                ]
            }
        },
        {
            "type": "Feature",
            "properties": {
                "county": "南投縣",
                "name": "北山國小1甲-6甲與6間專科教室",
                "phone": "049-2451935",
                "address": "南投縣國姓鄉北山村中正路4段19之1號"
            },
            "geometry": {
                "type": "Point",
                "coordinates": [
                    120.893874,
                    23.980816
                ]
            }
        },
        {
            "type": "Feature",
            "properties": {
                "county": "南投縣",
                "name": "南天宮",
                "phone": "049-2451032",
                "address": "南投縣國姓鄉北山村中正路4段160-1號"
            },
            "geometry": {
                "type": "Point",
                "coordinates": [
                    120.872393,
                    23.981686
                ]
            }
        },
        {
            "type": "Feature",
            "properties": {
                "county": "南投縣",
                "name": "碧雲宮",
                "phone": "049-2461198",
                "address": "南投縣國姓鄉北港村北圳巷26-1號"
            },
            "geometry": {
                "type": "Point",
                "coordinates": [
                    120.924815,
                    24.062633
                ]
            }
        },
        {
            "type": "Feature",
            "properties": {
                "county": "南投縣",
                "name": "港源社區(五榖宮)",
                "phone": "2452813",
                "address": "南投縣國姓鄉南港村南港路11號"
            },
            "geometry": {
                "type": "Point",
                "coordinates": [
                    120.869163,
                    23.935876
                ]
            }
        },
        {
            "type": "Feature",
            "properties": {
                "county": "南投縣",
                "name": "護國宮",
                "phone": "0910523351",
                "address": "南投縣國姓鄉石門村國姓路207-5號"
            },
            "geometry": {
                "type": "Point",
                "coordinates": [
                    120.861628,
                    24.042507
                ]
            }
        },
        {
            "type": "Feature",
            "properties": {
                "county": "南投縣",
                "name": "福龜社區活動中心",
                "phone": "049-2723067",
                "address": "南投縣國姓鄉福龜村富久巷21之3號"
            },
            "geometry": {
                "type": "Point",
                "coordinates": [
                    120.816058,
                    24.009882
                ]
            }
        },
        {
            "type": "Feature",
            "properties": {
                "county": "南投縣",
                "name": "長流社區活動中心",
                "phone": "049-2431753",
                "address": "南投縣國姓鄉長流村大長路427號"
            },
            "geometry": {
                "type": "Point",
                "coordinates": [
                    120.876234,
                    24.070765
                ]
            }
        },
        {
            "type": "Feature",
            "properties": {
                "county": "南投縣",
                "name": "乾溝義民祠",
                "phone": "049-2723185",
                "address": "南投縣國姓鄉乾溝村中西巷36號"
            },
            "geometry": {
                "type": "Point",
                "coordinates": [
                    120.813933,
                    24.028607
                ]
            }
        },
        {
            "type": "Feature",
            "properties": {
                "county": "南投縣",
                "name": "育樂國小1甲-6甲與2間專科教室,圖書室,禮堂",
                "phone": "049-2721274",
                "address": "南投縣國姓鄉柑林村中正路2段223號"
            },
            "geometry": {
                "type": "Point",
                "coordinates": [
                    120.845862,
                    24.017305
                ]
            }
        },
        {
            "type": "Feature",
            "properties": {
                "county": "南投縣",
                "name": "國姓國中禮堂",
                "phone": "049-2721144",
                "address": "南投縣國姓鄉國姓村國姓路237號"
            },
            "geometry": {
                "type": "Point",
                "coordinates": [
                    120.856656,
                    24.039625
                ]
            }
        },
        {
            "type": "Feature",
            "properties": {
                "county": "南投縣",
                "name": "長豐社區活動中心",
                "phone": "049-2431975",
                "address": "南投縣國姓鄉長豐村東三巷36之1號"
            },
            "geometry": {
                "type": "Point",
                "coordinates": [
                    120.871106,
                    24.077411
                ]
            }
        },
        {
            "type": "Feature",
            "properties": {
                "county": "南投縣",
                "name": "福龜國小1甲-6甲與2間專科教室",
                "phone": "049-2721019",
                "address": "南投縣國姓鄉福龜村長壽巷83號"
            },
            "geometry": {
                "type": "Point",
                "coordinates": [
                    120.82294,
                    24.012301
                ]
            }
        },
        {
            "type": "Feature",
            "properties": {
                "county": "南投縣",
                "name": "國姓國小活動中心",
                "phone": "049-2721018",
                "address": "南投縣國姓鄉國姓村國姓路311號"
            },
            "geometry": {
                "type": "Point",
                "coordinates": [
                    120.856656,
                    24.039625
                ]
            }
        },
        {
            "type": "Feature",
            "properties": {
                "county": "南投縣",
                "name": "穀豐宮-長壽社區",
                "phone": "049-2722746",
                "address": "南投縣國姓鄉福龜村長壽巷34-1號"
            },
            "geometry": {
                "type": "Point",
                "coordinates": [
                    120.826925,
                    24.022203
                ]
            }
        },
        {
            "type": "Feature",
            "properties": {
                "county": "南投縣",
                "name": "德林念佛寺",
                "phone": "049-2461870",
                "address": "南投縣國姓鄉北港村北原路48之1號"
            },
            "geometry": {
                "type": "Point",
                "coordinates": [
                    120.936441,
                    24.066579
                ]
            }
        },
        {
            "type": "Feature",
            "properties": {
                "county": "南投縣",
                "name": "大石社區活動中心",
                "phone": "049-2451365",
                "address": "南投縣國姓鄉大石村中正路3段235之3號"
            },
            "geometry": {
                "type": "Point",
                "coordinates": [
                    120.861605,
                    23.989318
                ]
            }
        },
        {
            "type": "Feature",
            "properties": {
                "county": "南投縣",
                "name": "長流國小1甲-6甲及2間專科教室",
                "phone": "049-2431006",
                "address": "南投縣國姓鄉長流村大長路559號"
            },
            "geometry": {
                "type": "Point",
                "coordinates": [
                    120.876329,
                    24.066701
                ]
            }
        },
        {
            "type": "Feature",
            "properties": {
                "county": "南投縣",
                "name": "楞嚴宮",
                "phone": "049-2431305",
                "address": "南投縣國姓鄉長福村大長路592-1號"
            },
            "geometry": {
                "type": "Point",
                "coordinates": [
                    120.879676,
                    24.080563
                ]
            }
        },
        {
            "type": "Feature",
            "properties": {
                "county": "南投縣",
                "name": "國姓社區活動中心",
                "phone": "049-2721731",
                "address": "南投縣國姓鄉國姓村民族路40號"
            },
            "geometry": {
                "type": "Point",
                "coordinates": [
                    120.855,
                    24.0376
                ]
            }
        },
        {
            "type": "Feature",
            "properties": {
                "county": "南投縣",
                "name": "乾溝社區活動中心",
                "phone": "049-2723509",
                "address": "南投縣國姓鄉乾溝村西東巷1之1號"
            },
            "geometry": {
                "type": "Point",
                "coordinates": [
                    120.824167,
                    24.029388
                ]
            }
        },
        {
            "type": "Feature",
            "properties": {
                "county": "南投縣",
                "name": "北山國中",
                "phone": "049-2451028",
                "address": "南投縣國姓鄉北山村中正路4段157號"
            },
            "geometry": {
                "type": "Point",
                "coordinates": [
                    120.873645,
                    23.98054
                ]
            }
        },
        {
            "type": "Feature",
            "properties": {
                "county": "南投縣",
                "name": "長福國小1甲-6甲,音樂室,圖書室",
                "phone": "049-2431295",
                "address": "南投縣國姓鄉長福村大長路71號"
            },
            "geometry": {
                "type": "Point",
                "coordinates": [
                    120.887996,
                    24.092749
                ]
            }
        },
        {
            "type": "Feature",
            "properties": {
                "county": "南投縣",
                "name": "乾峰國小1甲-6甲與4間專科教室",
                "phone": "049-2721002",
                "address": "南投縣國姓鄉乾溝村中西巷3號"
            },
            "geometry": {
                "type": "Point",
                "coordinates": [
                    120.824609,
                    24.027895
                ]
            }
        },
        {
            "type": "Feature",
            "properties": {
                "county": "南投縣",
                "name": "北港村集會所",
                "phone": "049-2461033",
                "address": "南投縣國姓鄉北港村國姓路31-12號"
            },
            "geometry": {
                "type": "Point",
                "coordinates": [
                    120.913465,
                    24.057535
                ]
            }
        },
        {
            "type": "Feature",
            "properties": {
                "county": "南投縣",
                "name": "北山社區活動中心",
                "phone": "0921-786113",
                "address": "南投縣國姓鄉北山村中正路4段112號"
            },
            "geometry": {
                "type": "Point",
                "coordinates": [
                    120.885165,
                    23.984791
                ]
            }
        }
    ]
}