{
    "type": "FeatureCollection",
    "features": [
        {
            "type": "Feature",
            "properties": {
                "county": "高雄市",
                "name": "國軍退役官兵輔導委員會高雄榮譽國民之家",
                "phone": "07-3652828#1038",
                "address": "高雄市楠梓區宏榮里加昌路631號"
            },
            "geometry": {
                "type": "Point",
                "coordinates": [
                    120.302349,
                    22.716397
                ]
            }
        },
        {
            "type": "Feature",
            "properties": {
                "county": "高雄市",
                "name": "高雄市楠梓區行政中心7樓大禮堂",
                "phone": "07-3517121#112",
                "address": "高雄市楠梓區惠楠里楠梓新路264號7樓"
            },
            "geometry": {
                "type": "Point",
                "coordinates": [
                    120.326285,
                    22.728414
                ]
            }
        },
        {
            "type": "Feature",
            "properties": {
                "county": "高雄市",
                "name": "高雄市楠梓區宏昌等六里聯合活動中心",
                "phone": "07-3517121#112",
                "address": "高雄市楠梓區宏昌里後昌路960巷19號"
            },
            "geometry": {
                "type": "Point",
                "coordinates": [
                    120.29409,
                    22.715354
                ]
            }
        },
        {
            "type": "Feature",
            "properties": {
                "county": "高雄市",
                "name": "高雄市立後勁國民中學",
                "phone": "07-3654111#312",
                "address": "高雄市楠梓區瑞屏里加昌路180號"
            },
            "geometry": {
                "type": "Point",
                "coordinates": [
                    120.314216,
                    22.721706
                ]
            }
        },
        {
            "type": "Feature",
            "properties": {
                "county": "高雄市",
                "name": "高雄市立右昌國民中學",
                "phone": "07-3640451#310",
                "address": "高雄市楠梓區泰昌里盛昌街161號"
            },
            "geometry": {
                "type": "Point",
                "coordinates": [
                    120.286705,
                    22.712889
                ]
            }
        },
        {
            "type": "Feature",
            "properties": {
                "county": "高雄市",
                "name": "高雄市楠梓區楠梓國民小學",
                "phone": "07-3511140#1300",
                "address": "高雄市楠梓區東寧里楠梓路262號"
            },
            "geometry": {
                "type": "Point",
                "coordinates": [
                    120.328366,
                    22.732233
                ]
            }
        },
        {
            "type": "Feature",
            "properties": {
                "county": "高雄市",
                "name": "高雄市楠梓區右昌國民小學",
                "phone": "07-3612368#731",
                "address": "高雄市楠梓區建昌里加昌路910號"
            },
            "geometry": {
                "type": "Point",
                "coordinates": [
                    120.292163,
                    22.713673
                ]
            }
        },
        {
            "type": "Feature",
            "properties": {
                "county": "高雄市",
                "name": "高雄市楠梓區援中國民小學",
                "phone": "07-3612193#310",
                "address": "高雄市楠梓區中和里大學西路567號"
            },
            "geometry": {
                "type": "Point",
                "coordinates": [
                    120.278374,
                    22.729125
                ]
            }
        },
        {
            "type": "Feature",
            "properties": {
                "county": "高雄市",
                "name": "高雄市楠梓區楠陽國民小學",
                "phone": "07-3520675#135",
                "address": "高雄市楠梓區五常里楠陽路100號"
            },
            "geometry": {
                "type": "Point",
                "coordinates": [
                    120.330946,
                    22.724188
                ]
            }
        },
        {
            "type": "Feature",
            "properties": {
                "county": "高雄市",
                "name": "高雄市楠梓區翠屏里活動中心",
                "phone": "07-3517121#112",
                "address": "高雄市楠梓區翠屏里德惠路55號"
            },
            "geometry": {
                "type": "Point",
                "coordinates": [
                    120.302159,
                    22.726779
                ]
            }
        },
        {
            "type": "Feature",
            "properties": {
                "county": "高雄市",
                "name": "高雄市楠梓區莒光國民小學",
                "phone": "07-3612078#133",
                "address": "高雄市楠梓區秀昌里後昌路842號"
            },
            "geometry": {
                "type": "Point",
                "coordinates": [
                    120.295323,
                    22.711645
                ]
            }
        },
        {
            "type": "Feature",
            "properties": {
                "county": "高雄市",
                "name": "高雄市楠梓區後勁國民小學",
                "phone": "07-3626342#7321",
                "address": "高雄市楠梓區瑞屏里加昌路216號"
            },
            "geometry": {
                "type": "Point",
                "coordinates": [
                    120.314216,
                    22.721706
                ]
            }
        },
        {
            "type": "Feature",
            "properties": {
                "county": "高雄市",
                "name": "高雄市楠梓區油廠國民小學",
                "phone": "07-363-2300#332",
                "address": "高雄市楠梓區宏榮里左楠路4號"
            },
            "geometry": {
                "type": "Point",
                "coordinates": [
                    120.302884,
                    22.708704
                ]
            }
        },
        {
            "type": "Feature",
            "properties": {
                "county": "高雄市",
                "name": "高雄市楠梓區加昌國民小學",
                "phone": "07-3627169#5032",
                "address": "高雄市楠梓區加昌里樂群路220號"
            },
            "geometry": {
                "type": "Point",
                "coordinates": [
                    120.296547,
                    22.720392
                ]
            }
        },
        {
            "type": "Feature",
            "properties": {
                "county": "高雄市",
                "name": "高雄市立楠梓高級中學",
                "phone": "07-3550571#3103",
                "address": "高雄市楠梓區清豐里清豐路19號"
            },
            "geometry": {
                "type": "Point",
                "coordinates": [
                    120.332432,
                    22.743276
                ]
            }
        },
        {
            "type": "Feature",
            "properties": {
                "county": "高雄市",
                "name": "高雄市立國昌國民中學",
                "phone": "07-3644300#32",
                "address": "高雄市楠梓區國昌里德民路1010號"
            },
            "geometry": {
                "type": "Point",
                "coordinates": [
                    120.285679,
                    22.719107
                ]
            }
        },
        {
            "type": "Feature",
            "properties": {
                "county": "高雄市",
                "name": "高雄市立翠屏國民中小學",
                "phone": "07-3683017#131",
                "address": "高雄市楠梓區翠屏里翠屏路135號"
            },
            "geometry": {
                "type": "Point",
                "coordinates": [
                    120.299567,
                    22.7282
                ]
            }
        },
        {
            "type": "Feature",
            "properties": {
                "county": "高雄市",
                "name": "高雄市立楠梓國民中學",
                "phone": "07-3517191#310",
                "address": "高雄市楠梓區東寧里楠梓路336號"
            },
            "geometry": {
                "type": "Point",
                "coordinates": [
                    120.327507,
                    22.733936
                ]
            }
        },
        {
            "type": "Feature",
            "properties": {
                "county": "高雄市",
                "name": "高雄市楠梓區仁昌里活動中心",
                "phone": "07-3517121#112",
                "address": "高雄市楠梓區仁昌里壽豐路461號"
            },
            "geometry": {
                "type": "Point",
                "coordinates": [
                    120.294854,
                    22.724246
                ]
            }
        },
        {
            "type": "Feature",
            "properties": {
                "county": "高雄市",
                "name": "高雄市立中山高級中學",
                "phone": "07-3641116#130",
                "address": "高雄市楠梓區藍田里藍昌路416號"
            },
            "geometry": {
                "type": "Point",
                "coordinates": [
                    120.292212,
                    22.729485
                ]
            }
        }
    ]
}